"CASE_ENQUIRY_ID","open_dt","TARGET_DT","closed_dt","OnTime","CASE_STATUS","CLOSURE_REASON","CASE_TITLE","SUBJECT","REASON","TYPE","QUEUE","Department","SubmittedPhoto","ClosedPhoto","Location","Fire_district","pwd_district","city_council_district","police_district","neighborhood","neighborhood_services_district","ward","precinct","LOCATION_STREET_NAME","LOCATION_ZIPCODE","Latitude","Longitude","Source"
101000370288,"2012-01-04 08:02:44","","2012-02-09 08:43:50","ONTIME","Closed","Case Closed Case Resolved An operations crew investigated the location on January 4th and found no loose covers.  ","Sidewalk Cover / Manhole","Boston Water & Sewer Commission","Sidewalk Cover / Manhole","Sidewalk Cover / Manhole","BWSC_All Cases","BWSC","","","INTERSECTION of Cooper St & N Washington St  Boston  MA  ",3,"1B",1,"A1","Downtown / Financial District",3,"Ward 3","0304","INTERSECTION Cooper St & N Washington St",NA,42.3644,-71.0582,"Constituent Call"
101000373098,"2012-01-11 10:34:13","","2012-07-03 12:19:11","ONTIME","Closed","Case Closed Case Referred to External Agency NStar jurisdiction.  Details forwarded. ","Sidewalk Cover / Manhole","Boston Water & Sewer Commission","Sidewalk Cover / Manhole","Sidewalk Cover / Manhole","INFO_Reallocation From Dept","INFO","","","21 School St  Boston  MA  02108",3,"1C",1,"A1","Downtown / Financial District",3,"Ward 3","0306","21 School St",2108,42.3577,-71.0589,"Constituent Call"
101000376337,"2012-01-21 15:50:18","","2012-01-23 08:59:44","ONTIME","Closed","Case Closed Case Resolved Crew checked area did not find cover off 1/21. ","Sidewalk Cover / Manhole","Boston Water & Sewer Commission","Sidewalk Cover / Manhole","Sidewalk Cover / Manhole","BWSC_All Cases","BWSC","","","INTERSECTION of Arlington St & Beacon St  Boston  MA  ",4,"1C",8,"D4","Back Bay",14,"Ward 5","0505","INTERSECTION Arlington St & Beacon St",NA,42.3554,-71.0726,"Constituent Call"
101000376342,"2012-01-21 15:54:04","","2012-01-23 08:57:21","ONTIME","Closed","Case Closed Case Resolved Crew checked area found no cover off 1/21/12 ","Sidewalk Cover / Manhole","Boston Water & Sewer Commission","Sidewalk Cover / Manhole","Sidewalk Cover / Manhole","BWSC_All Cases","BWSC","","","INTERSECTION of Arlington St & Beacon St  Boston  MA  ",4,"1C",8,"D4","Back Bay",14,"Ward 5","0505","INTERSECTION Arlington St & Beacon St",NA,42.3554,-71.0726,"Constituent Call"
101000376797,"2012-01-23 11:56:40","","2012-01-24 11:56:55","ONTIME","Closed","Case Closed Case Noted ","Sidewalk Cover / Manhole","Boston Water & Sewer Commission","Sidewalk Cover / Manhole","Sidewalk Cover / Manhole","INFO_Reallocation From Dept","INFO","","","INTERSECTION of Centre St & Eliot St  Jamaica Plain  MA  ",9,"02",6,"E13","Jamaica Plain",11,"Ward 19","1909","INTERSECTION Centre St & Eliot St",NA,42.3097,-71.1155,"Constituent Call"
101000377504,"2012-01-25 11:45:14","","2012-01-25 14:11:00","ONTIME","Closed","Case Closed Case Resolved completed 01/25/12 ","Sidewalk Cover / Manhole","Boston Water & Sewer Commission","Sidewalk Cover / Manhole","Sidewalk Cover / Manhole","PWDx_Street Light_General Lighting Request","PWDx","","","INTERSECTION of Geneva Ave & Westville St  Dorchester  MA  ",7,"03",4,"C11","Dorchester",8,"Ward 15","1505","INTERSECTION Geneva Ave & Westville St",NA,42.301,-71.0674,"Constituent Call"
101000378396,"2012-01-27 14:23:26","","2012-02-09 09:19:17","ONTIME","Closed","Case Closed Case Resolved An operations crew investigated the location on January 27th and determined it to be a loose electrical cover.  ","Sidewalk Cover / Manhole","Boston Water & Sewer Commission","Sidewalk Cover / Manhole","Sidewalk Cover / Manhole","BWSC_All Cases","BWSC","","","297 Wachusett St  Jamaica Plain  MA  02130",12,"02",6,"E13","Jamaica Plain",10,"Ward 19","1912","297 Wachusett St",2130,42.2891,-71.117,"Constituent Call"
101000379221,"2012-01-30 18:01:32","","2012-01-31 15:41:46","ONTIME","Closed","Case Closed Case Resolved Crew sealed cover 1/30. ","Sidewalk Cover / Manhole","Boston Water & Sewer Commission","Sidewalk Cover / Manhole","Sidewalk Cover / Manhole","BWSC_All Cases","BWSC","","","INTERSECTION of Florence St & Sherwood St  Roslindale  MA  ",12,"02",5,"E5","Roslindale",10,"Ward 19","1913","INTERSECTION Florence St & Sherwood St",NA,42.2864,-71.1204,"Constituent Call"
101000379358,"2012-01-31 10:10:59","","2012-01-31 15:44:58","ONTIME","Closed","Case Closed Case Resolved Crew found line stopped on arrival  jetted line 150? and freed line 1/31. ","Sidewalk Cover / Manhole","Boston Water & Sewer Commission","Sidewalk Cover / Manhole","Sidewalk Cover / Manhole","BWSC_All Cases","BWSC","","","70-80 Talbot Ave  Dorchester  MA  02124",8,"03",4,"B3","Greater Mattapan",8,"Ward 14","1407","70-80 Talbot Ave",2124,42.294,-71.0837,"Constituent Call"
101000386304,"2012-02-21 10:09:38","","2012-02-23 14:50:42","ONTIME","Closed","Case Closed Case Resolved An operations crew investigated on 2/21 and found no open cover. ","Sidewalk Cover / Manhole","Boston Water & Sewer Commission","Sidewalk Cover / Manhole","Sidewalk Cover / Manhole","BWSC_All Cases","BWSC","","","INTERSECTION of Warren Ave & Constitution Rd  Charlestown  MA  ",3,"1A",1,"A15","Charlestown",2,"Ward 2","0201","INTERSECTION Warren Ave & Constitution Rd",NA,42.3712,-71.0604,"Constituent Call"
101000387897,"2012-02-24 12:31:45","","2012-04-25 09:09:56","ONTIME","Closed","Case Closed Case Resolved This is a gas cover sticking up. Notified Mayor?s Office (Justin) 2/24/12. ","Sidewalk Cover / Manhole","Boston Water & Sewer Commission","Sidewalk Cover / Manhole","Sidewalk Cover / Manhole","BWSC_All Cases","BWSC","","","INTERSECTION of Chelsea St & Constitution Rd  Charlestown  MA  ",3,"1A",1,"A15","Charlestown",2,"Ward 2","0202","INTERSECTION Chelsea St & Constitution Rd",NA,42.3737,-71.0583,"Constituent Call"
101000393080,"2012-03-09 19:53:35","","2012-03-14 09:22:18","ONTIME","Closed","Case Closed Case Resolved A BWSC crew sealed and patched around the manhole on 3/9/12. ","Sidewalk Cover / Manhole","Boston Water & Sewer Commission","Sidewalk Cover / Manhole","Sidewalk Cover / Manhole","BWSC_All Cases","BWSC","","","230 Parsons St  Brighton  MA  02135",11,"04",9,"D14","Allston / Brighton",15,"Ward 22","2211","230 Parsons St",2135,42.357,-71.1576,"Constituent Call"
101000396880,"2012-03-19 10:08:39","","2012-03-23 09:36:09","ONTIME","Closed","Case Closed Case Resolved As of 3-22-2012 the CIU inspector states that all the castings in the area of 73 Chelsea st  Charleston are  to street grade with no covers missing.    Mark Cardarelli  Supervisor of Utility Coordination and Compliance  Boston Public Works Department  617-635-4951 Office  617-438-8517 Cell     ","Sidewalk Cover / Manhole","Boston Water & Sewer Commission","Sidewalk Cover / Manhole","Sidewalk Cover / Manhole","PWDx_Contractor Complaints","PWDx","","","73 Chelsea St  Charlestown  MA  02129",3,"1A",1,"A15","Charlestown",2,"02","0201","73 Chelsea St",2129,42.3733,-71.0585,"Constituent Call"
101000398891,"2012-03-22 13:47:55","","2012-03-26 15:32:53","ONTIME","Closed","Case Closed Case Resolved All BWSC manholes secure 3/23. ","Sidewalk Cover / Manhole","Boston Water & Sewer Commission","Sidewalk Cover / Manhole","Sidewalk Cover / Manhole","BWSC_All Cases","BWSC","","","116-118 Prince St  Boston  MA  02113",3,"1B",1,"A1","Downtown / Financial District",3,"Ward 3","0304","116-118 Prince St",2113,42.366,-71.0569,"Constituent Call"
101000400287,"2012-03-26 11:11:48","","2012-03-27 14:40:57","ONTIME","Closed","Case Closed Case Noted BWSC reports unable to locate issue being reported. ","Sidewalk Cover / Manhole","Boston Water & Sewer Commission","Sidewalk Cover / Manhole","Sidewalk Cover / Manhole","INFO_Reallocation From Dept","INFO","","","11A Eugene Cir  Mission Hill  MA  02120",9,"10A",8,"E13","Mission Hill",11,"Ward 10","1008","11A Eugene Cir",2120,42.328,-71.1091,"Constituent Call"
101000400776,"2012-03-27 09:21:29","","2012-11-09 16:25:46","ONTIME","Closed","Case Closed Case Resolved Sidewalk repaired 10/2012    Michael Somers  Senior Civil Engineer  Construction Management Division  Boston Public Works  617-635-3831 ","Sidewalk Cover / Manhole","Boston Water & Sewer Commission","Sidewalk Cover / Manhole","Sidewalk Cover / Manhole","PWDx_Sidewalk Repair","PWDx","","","INTERSECTION of Christopher St & Dorchester Ave  Dorchester  MA  ",7,"07",3,"C11","Dorchester",7,"Ward 16","1601","INTERSECTION Christopher St & Dorchester Ave",NA,42.2982,-71.0608,"Constituent Call"
101000407518,"2012-04-12 07:21:02","","2013-04-05 11:01:44","ONTIME","Closed","Case Closed Case Resolved Veiola had a leak on a pipe that fed the steam pipe BWSC assisted by shutting down the water pipe feeding the steam pipe.  Completed on 4/05/12 ","Sidewalk Cover / Manhole","Boston Water & Sewer Commission","Sidewalk Cover / Manhole","Sidewalk Cover / Manhole","INFO01_GenericeFormforOtherServiceRequestTypes","INFO","","","650 Harrison Ave  Roxbury  MA  02118",4,"1C",2,"D4","Roxbury",6,"08","0801","650 Harrison Ave",2118,42.3395,-71.0692,"Constituent Call"
101000407862,"2012-04-12 15:32:24","","2012-04-13 13:49:21","ONTIME","Closed","Case Closed Case Noted A BWSC contractor is working here. The cover is there and barricaded with 2 orange barrels while work being done 4/12. ","Sidewalk Cover / Manhole","Boston Water & Sewer Commission","Sidewalk Cover / Manhole","Sidewalk Cover / Manhole","BWSC_All Cases","BWSC","","","INTERSECTION of I St & E Third St  South Boston  MA  ",6,"05",2,"C6","South Boston / South Boston Waterfront",5,"Ward 6","0605","INTERSECTION I St & E Third St",NA,42.3364,-71.04,"Constituent Call"
101000408555,"2012-04-15 03:10:04","","2013-04-05 11:38:20","ONTIME","Closed","Case Closed Case Resolved Routine maintenece sewer down and running 4/15/12 ","Sidewalk Cover / Manhole","Boston Water & Sewer Commission","Sidewalk Cover / Manhole","Sidewalk Cover / Manhole","INFO01_GenericeFormforOtherServiceRequestTypes","INFO","","","45-47 Chatham St  Boston  MA  02109",3,"1B",1,"A1","Downtown / Financial District",3,"Ward 3","0306","45-47 Chatham St",2109,42.3594,-71.0554,"Constituent Call"
101000408609,"2012-04-15 12:17:36","","2012-04-17 13:58:11","ONTIME","Closed","Case Closed Case Resolved A BWSC crew was here on 4/15/12  found no odor  flushed and disinfected catch basins on Baxter St. ","Sidewalk Cover / Manhole","Boston Water & Sewer Commission","Sidewalk Cover / Manhole","Sidewalk Cover / Manhole","BWSC_All Cases","BWSC","","","INTERSECTION of Baxter St & D St  South Boston  MA  ",6,"05",2,"C6","South Boston / South Boston Waterfront",5,"Ward 6","0602","INTERSECTION Baxter St & D St",NA,42.3359,-71.0543,"Constituent Call"
101000410718,"2012-04-20 10:05:05","","2012-04-20 16:37:34","ONTIME","Closed","Case Closed Case Noted No issue found upon inspection ","Sidewalk Cover / Manhole","Boston Water & Sewer Commission","Sidewalk Cover / Manhole","Sidewalk Cover / Manhole","BWSC_All Cases","BWSC","","","INTERSECTION of Webster St & Walter St  Hyde Park  MA  ",12,"08",5,"E18","Hyde Park",10,"Ward 18","1813","INTERSECTION Webster St & Walter St",NA,42.2575,-71.1197,"Constituent Call"
101000413373,"2012-04-26 13:43:43","","2012-04-30 08:16:41","ONTIME","Closed","Case Closed Case Resolved Crew replaced buffalo box cover 4/26. ","Sidewalk Cover / Manhole","Boston Water & Sewer Commission","Sidewalk Cover / Manhole","Sidewalk Cover / Manhole","BWSC_All Cases","BWSC","","","INTERSECTION of Chamber St & Warren St  Charlestown  MA  ",3,"1A",1,"A15","Charlestown",2,"Ward 2","0201","INTERSECTION Chamber St & Warren St",NA,42.3722,-71.0605,"Constituent Call"
101000413399,"2012-04-26 14:14:32","","2012-04-30 08:16:17","ONTIME","Closed","Case Closed Case Resolved Crew replaced buffalo box cover 4/26. ","Sidewalk Cover / Manhole","Boston Water & Sewer Commission","Sidewalk Cover / Manhole","Sidewalk Cover / Manhole","BWSC_All Cases","BWSC","","","65 Chelsea St  East Boston  MA  02128",1,"09",1,"A7","East Boston",1,"Ward 1","0104","65 Chelsea St",2128,42.3715,-71.0366,"Constituent Call"
101000413617,"2012-04-27 08:08:50","","2012-10-17 13:13:21","ONTIME","Closed","Case Closed Case Noted Administratively closed due to age of case. ","Sidewalk Cover / Manhole","Boston Water & Sewer Commission","Sidewalk Cover / Manhole","Sidewalk Cover / Manhole","BTDT_Administration","BTDT","","","360 Newbury St  Boston  MA  02115",4,"1C",8,"D4","Back Bay",14,"Ward 5","0509","360 Newbury St",2115,42.348,-71.0876,"Constituent Call"
101000414124,"2012-04-28 04:04:23","","2012-05-07 14:45:15","ONTIME","Closed","Case Closed Case Resolved Crew raised buffalo box to grade 5/2. ","Sidewalk Cover / Manhole","Boston Water & Sewer Commission","Sidewalk Cover / Manhole","Sidewalk Cover / Manhole","BWSC_All Cases","BWSC","","","131 Oliver St  Boston  MA  02110",6,"1C",1,"A1","Downtown / Financial District",3,"03","0306","131 Oliver St",2110,42.3552,-71.0525,"Constituent Call"
101000415072,"2012-04-30 19:17:30","","2012-05-02 09:25:43","ONTIME","Closed","Case Closed Case Noted Dept reports no loose cover found ","Sidewalk Cover / Manhole","Boston Water & Sewer Commission","Sidewalk Cover / Manhole","Sidewalk Cover / Manhole","INFO_Reallocation From Dept","INFO","","","3553-3557 Washington St  Jamaica Plain  MA  02130",9,"02",6,"E13","Jamaica Plain",11,"Ward 11","1108","3553-3557 Washington St",2130,42.3047,-71.1095,"Constituent Call"
101000417107,"2012-05-04 10:44:44","","2012-05-09 09:01:53","ONTIME","Closed","Case Closed Case Noted Crew found no missing or broken cover in area 5/4. ","Sidewalk Cover / Manhole","Boston Water & Sewer Commission","Sidewalk Cover / Manhole","Sidewalk Cover / Manhole","BWSC_All Cases","BWSC","","","INTERSECTION of Chelsea St & Constitution Rd  Charlestown  MA  ",3,"1A",1,"A15","Charlestown",2,"Ward 2","0202","INTERSECTION Chelsea St & Constitution Rd",NA,42.3737,-71.0583,"Constituent Call"
101000417929,"2012-05-07 10:08:50","","2012-05-10 15:33:05","ONTIME","Closed","Case Closed Case Resolved Dug and repaired service pipe leak 5/9/12. ","Sidewalk Cover / Manhole","Boston Water & Sewer Commission","Sidewalk Cover / Manhole","Sidewalk Cover / Manhole","BWSC_All Cases","BWSC","","","70-72 Bennington St  East Boston  MA  02128",1,"09",1,"A7","East Boston",1,"Ward 1","0106","70-72 Bennington St",2128,42.376,-71.0364,"Constituent Call"
101000424441,"2012-05-18 19:29:36","","2013-04-05 12:23:55","ONTIME","Closed","Case Closed Case Noted Closd due to time lapse.  Please resubmit if issure persists. ","Sidewalk Cover / Manhole","Boston Water & Sewer Commission","Sidewalk Cover / Manhole","Sidewalk Cover / Manhole","INFO_Reallocation From Dept","INFO","","","INTERSECTION of Washington St & Winship St  Brighton  MA  ",11,"04",9,"D14","Allston / Brighton",15,"Ward 22","2203","INTERSECTION Washington St & Winship St",NA,42.3489,-71.1507,"Constituent Call"
101000434087,"2012-06-08 12:31:34","","2012-08-08 23:06:21","ONTIME","Closed","Case Closed Case Resolved CASE RESOLVED PULLBOX HAS BEEN REPAIRED ","Sidewalk Cover / Manhole","Boston Water & Sewer Commission","Sidewalk Cover / Manhole","Sidewalk Cover / Manhole","PWDx_Street Light_General Lighting Request","PWDx","","","149 Bowen St  South Boston  MA  02127",6,"05",2,"C6","South Boston",5,"06","0602","149 Bowen St",2127,42.337,-71.0527,"Constituent Call"
101000434984,"2012-06-11 11:32:51","","2012-06-12 09:48:42","ONTIME","Closed","Case Closed Case Invalid Crew investigated the area on 6/11 and found all BWSC covers ok. ","Sidewalk Cover / Manhole","Boston Water & Sewer Commission","Sidewalk Cover / Manhole","Sidewalk Cover / Manhole","BWSC_All Cases","BWSC","","","INTERSECTION of Belvidere St & Huntington Ave  Boston  MA  ",4,"1C",2,"D4","Back Bay",6,"Ward 4","0402","INTERSECTION Belvidere St & Huntington Ave",NA,42.3454,-71.0818,"Constituent Call"
101000442513,"2012-06-28 09:15:26","","2013-04-05 12:25:08","ONTIME","Closed","Case Closed Case Noted Closed due to time lapse.  Please resubmit if issue persists. ","Sidewalk Cover / Manhole","Boston Water & Sewer Commission","Sidewalk Cover / Manhole","Sidewalk Cover / Manhole","INFO_Reallocation From Dept","INFO","","","INTERSECTION of Mount Vernon St & Walnut St  Boston  MA  ",3,"1B",8,"A1","Beacon Hill",14,"Ward 5","0503","INTERSECTION Mount Vernon St & Walnut St",NA,42.3583,-71.0663,"Constituent Call"
101000443556,"2012-06-30 14:44:48","","2012-07-10 09:29:36","ONTIME","Closed","Case Closed Case Resolved Broke out repaired manhole chamber  backfilled and patched 7/5. ","Sidewalk Cover / Manhole","Boston Water & Sewer Commission","Sidewalk Cover / Manhole","Sidewalk Cover / Manhole","BWSC_All Cases","BWSC","","","63-65 Gordon Ave  Hyde Park  MA  02136",12,"08",5,"E18","Hyde Park",10,"Ward 18","1812","63-65 Gordon Ave",2136,42.258,-71.1277,"Constituent Call"
101000448706,"2012-07-12 09:07:46","","2012-11-16 15:39:16","ONTIME","Closed","Case Closed Case Resolved cover resealed on 7/19/12 ","Sidewalk Cover / Manhole","Boston Water & Sewer Commission","Sidewalk Cover / Manhole","Sidewalk Cover / Manhole","BWSC_All Cases","BWSC","","","INTERSECTION of Saratoga St & Teragram St  East Boston  MA  ",1,"09",1,"A7","East Boston",1,"Ward 1","0112","INTERSECTION Saratoga St & Teragram St",NA,42.384,-70.9993,"Constituent Call"
101000450226,"2012-07-16 10:54:20","","2012-07-16 15:14:16","ONTIME","Closed","Case Closed Case Noted The complaint was investigated  all manholes on E Street were in place.  Our contractor is working on F Street at Bolton  inspecting the sewer system.  Contractor was at the upstream manhole  downstream manhole was barricaded.   This may be the location?   The manholes on E Street were fine. ","Sidewalk Cover / Manhole","Boston Water & Sewer Commission","Sidewalk Cover / Manhole","Sidewalk Cover / Manhole","BWSC_All Cases","BWSC","","","INTERSECTION of Bolton St & E St  South Boston  MA  ",6,"05",2,"C6","South Boston / South Boston Waterfront",5,"Ward 6","0603","INTERSECTION Bolton St & E St",NA,42.3389,-71.0481,"Constituent Call"
101000451710,"2012-07-18 17:36:00","","2012-07-20 08:46:36","ONTIME","Closed","Case Closed Case Noted Crew found no loose or missing cover on arrival 7/18. ","Sidewalk Cover / Manhole","Boston Water & Sewer Commission","Sidewalk Cover / Manhole","Sidewalk Cover / Manhole","BWSC_All Cases","BWSC","","","40 New Sudbury St  Boston  MA  02114",3,"1B",1,"A1","Boston",3,"03","0306","40 New Sudbury St",2114,42.3618,-71.0603,"Constituent Call"
101000452879,"2012-07-20 12:49:22","","2012-07-23 12:16:02","ONTIME","Closed","Case Closed Case Resolved Crew sealed m/h cover 7/20. ","Sidewalk Cover / Manhole","Boston Water & Sewer Commission","Sidewalk Cover / Manhole","Sidewalk Cover / Manhole","BWSC_All Cases","BWSC","","","INTERSECTION of Colgate Rd & Washington St  Roslindale  MA  ",12,"02",5,"E5","Roslindale",10,"Ward 19","1911","INTERSECTION Colgate Rd & Washington St",NA,42.2933,-71.1208,"Constituent Call"
101000453127,"2012-07-20 21:28:35","","2012-07-23 10:20:34","ONTIME","Closed","Case Closed Case Resolved Hydrant gate box cover sticking up put back on 7/20. ","Sidewalk Cover / Manhole","Boston Water & Sewer Commission","Sidewalk Cover / Manhole","Sidewalk Cover / Manhole","BWSC_All Cases","BWSC","","","30 Darling St  Mission Hill  MA  02120",9,"10A",8,"B2","Mission Hill",14,"Ward 10","1003","30 Darling St",2120,42.3315,-71.1056,"Constituent Call"
101000453449,"2012-07-22 18:33:12","","2012-07-23 10:19:32","ONTIME","Closed","Case Closed Case Referred to External Agency  BWSC Crew found 3 Trigen m/h?s off stood by until trigen was on site 7/22. ","Sidewalk Cover / Manhole","Boston Water & Sewer Commission","Sidewalk Cover / Manhole","Sidewalk Cover / Manhole","BWSC_All Cases","BWSC","","","INTERSECTION of Lomasney Way & Martha Rd  Boston  MA  ",3,"1B",8,"A1","Downtown / Financial District",3,"Ward 3","0305","INTERSECTION Lomasney Way & Martha Rd",NA,42.3658,-71.0649,"Constituent Call"
101000453656,"2012-07-23 10:08:05","","2013-07-11 17:39:06","ONTIME","Closed","Case Closed Case Noted ","Sidewalk Cover / Manhole","Boston Water & Sewer Commission","Sidewalk Cover / Manhole","Sidewalk Cover / Manhole","PWDx_Street Light_General Lighting Request","PWDx","","","131 Dartmouth St  Boston  MA  02116",4,"1C",2,"D4","Boston",6,"04","0402","131 Dartmouth St",2116,42.3466,-71.0754,"Constituent Call"
101000455410,"2012-07-25 17:46:39","","2012-07-26 09:05:05","ONTIME","Closed","Case Closed Case Noted There is a 14x16 that was loose cut out ready to be paved. Construction working here they will send inspector to check on it. 7/25 ","Sidewalk Cover / Manhole","Boston Water & Sewer Commission","Sidewalk Cover / Manhole","Sidewalk Cover / Manhole","BWSC_All Cases","BWSC","","","INTERSECTION of Dakota St & Washington St  Dorchester  MA  ",8,"03",4,"C11","Dorchester",9,"Ward 17","1701","INTERSECTION Dakota St & Washington St",NA,42.2985,-71.073,"Constituent Call"
101000458220,"2012-07-31 13:26:06","","2012-08-01 15:52:24","ONTIME","Closed","Case Closed Case Resolved Catch basin repaired 8/1/12 ","Sidewalk Cover / Manhole","Boston Water & Sewer Commission","Sidewalk Cover / Manhole","Sidewalk Cover / Manhole","BWSC_All Cases","BWSC","","","INTERSECTION of Merrimac St & New Chardon St  Boston  MA  ",3,"1B",1,"A1","Downtown / Financial District",3,"Ward 3","0306","INTERSECTION Merrimac St & New Chardon St",NA,42.363,-71.0597,"Constituent Call"
101000461814,"2012-08-08 10:06:10","","2012-08-13 13:11:46","ONTIME","Closed","Case Closed Case Resolved ","Sidewalk Cover / Manhole","Boston Water & Sewer Commission","Sidewalk Cover / Manhole","Sidewalk Cover / Manhole","INFO01_GenericeFormforOtherServiceRequestTypes","INFO","","","8 Kittredge St  Roslindale  MA  02131",12,"06",5,"E5","Roslindale",10,"Ward 18","1810","8 Kittredge St",2131,42.2849,-71.1293,"Constituent Call"
101000462443,"2012-08-09 13:00:25","","2012-08-13 12:37:19","ONTIME","Closed","Case Closed Case Resolved Leak repaired 8/12. ","Sidewalk Cover / Manhole","Boston Water & Sewer Commission","Sidewalk Cover / Manhole","Sidewalk Cover / Manhole","BWSC_All Cases","BWSC","","","INTERSECTION of Francis St & Huntington Ave  Boston  MA  ",4,"10A",8,"B2","Mission Hill",14,"Ward 10","1003","INTERSECTION Francis St & Huntington Ave",NA,42.3342,-71.1049,"Constituent Call"
101000465026,"2012-08-15 11:14:10","","2012-08-21 12:41:42","ONTIME","Closed","Case Closed Case Noted BWSC reports location under Brookline jurisdiction.  ","Sidewalk Cover / Manhole","Boston Water & Sewer Commission","Sidewalk Cover / Manhole","Sidewalk Cover / Manhole","INFO_Reallocation From Dept","INFO","","","INTERSECTION of Corey St & Lagrange St  West Roxbury  MA  ",NA,"06",6,"E5","West Roxbury",12,"Ward 20","2017","INTERSECTION Corey St & Lagrange St",NA,42.3003,-71.1698,"Constituent Call"
101000468766,"2012-08-23 11:22:13","","2012-08-24 09:24:08","ONTIME","Closed","Case Closed Case Resolved Crew sealed 2 loose manhole covers. 8/23/12 ","Sidewalk Cover / Manhole","Boston Water & Sewer Commission","Sidewalk Cover / Manhole","Sidewalk Cover / Manhole","BWSC_All Cases","BWSC","","","INTERSECTION of Florence St & Sherwood St  Roslindale  MA  ",12,"02",5,"E5","Roslindale",10,"Ward 19","1913","INTERSECTION Florence St & Sherwood St",NA,42.2864,-71.1204,"Constituent Call"
101000471890,"2012-08-30 11:28:48","","2012-08-31 15:25:13","ONTIME","Closed","Case Closed Case Resolved Crew sealed a loose manhole cover 8/30/12 ","Sidewalk Cover / Manhole","Boston Water & Sewer Commission","Sidewalk Cover / Manhole","Sidewalk Cover / Manhole","BWSC_All Cases","BWSC","","","INTERSECTION of Florence St & Sherwood St  Roslindale  MA  ",12,"02",5,"E5","Roslindale",10,"Ward 19","1913","INTERSECTION Florence St & Sherwood St",NA,42.2864,-71.1204,"Constituent Call"
101000474192,"2012-09-04 19:57:50","","2012-09-05 09:01:53","ONTIME","Closed","Case Closed Case Resolved Crew sealed manhole cover 9/4. ","Sidewalk Cover / Manhole","Boston Water & Sewer Commission","Sidewalk Cover / Manhole","Sidewalk Cover / Manhole","BWSC_All Cases","BWSC","","","272 Faneuil St  Brighton  MA  02135",11,"04",9,"D14","Allston / Brighton",15,"Ward 22","2210","272 Faneuil St",2135,42.3524,-71.1613,"Constituent Call"
101000474965,"2012-09-06 11:00:17","","2012-09-07 11:04:22","ONTIME","Closed","Case Closed Case Resolved A BWSC crew sealed and replaced loose A2 cover on 9/6. ","Sidewalk Cover / Manhole","Boston Water & Sewer Commission","Sidewalk Cover / Manhole","Sidewalk Cover / Manhole","BWSC_All Cases","BWSC","","","INTERSECTION of Florence St & Sherwood St  Roslindale  MA  ",12,"02",5,"E5","Roslindale",10,"Ward 19","1913","INTERSECTION Florence St & Sherwood St",NA,42.2864,-71.1204,"Constituent Call"
101000475384,"2012-09-07 08:22:21","","2012-09-19 09:47:38","ONTIME","Closed","Case Closed Case Resolved Contractor repaired CB 9/14. ","Sidewalk Cover / Manhole","Boston Water & Sewer Commission","Sidewalk Cover / Manhole","Sidewalk Cover / Manhole","BWSC_All Cases","BWSC","","","INTERSECTION of Belvidere St & Saint Cecilia St  Boston  MA  ",4,"1C",8,"D4","Back Bay",14,"Ward 4","0406","INTERSECTION Belvidere St & Saint Cecilia St",NA,42.3464,-71.0867,"Constituent Call"
101000480534,"2012-09-18 09:19:51","","2012-09-25 13:30:27","ONTIME","Closed","Case Closed Case Resolved Cleaned 2 CB?s 9/20. ","Sidewalk Cover / Manhole","Boston Water & Sewer Commission","Sidewalk Cover / Manhole","Sidewalk Cover / Manhole","BWSC_All Cases","BWSC","","","9 Swift Ter  East Boston  MA  02128",1,"09",1,"A7","East Boston",1,"Ward 1","0110","9 Swift Ter",2128,42.3804,-71.0222,"Constituent Call"
101000483012,"2012-09-22 21:56:52","","2013-03-01 10:55:56","ONTIME","Closed","Case Closed Case Noted Sorry for delayed response to your case.  If issue persists  please contact Mayor's Office at 635-4500.  Thank you. ","Sidewalk Cover / Manhole","Boston Water & Sewer Commission","Sidewalk Cover / Manhole","Sidewalk Cover / Manhole","INFO_Reallocation From Dept","INFO","","","INTERSECTION of Beacon St & Fairfield St  Boston  MA  ",4,"1C",8,"D4","Back Bay",14,"Ward 5","0508","INTERSECTION Beacon St & Fairfield St",NA,42.3525,-71.0835,"Constituent Call"
101000489031,"2012-10-05 17:19:31","","2012-10-09 10:27:23","ONTIME","Closed","Case Closed Case Resolved A BWSC crew sealed 3 covers on 10/9. ","Sidewalk Cover / Manhole","Boston Water & Sewer Commission","Sidewalk Cover / Manhole","Sidewalk Cover / Manhole","BWSC_All Cases","BWSC","","","INTERSECTION of Florence St & Sherwood St  Roslindale  MA  ",12,"02",5,"E5","Roslindale",10,"Ward 19","1913","INTERSECTION Florence St & Sherwood St",NA,42.2864,-71.1204,"Constituent Call"
101000492139,"2012-10-15 10:10:57","","2013-04-05 12:26:51","ONTIME","Closed","Case Closed Case Resolved THERE IS A MISSING COVER ON PRIVATE PROPERTY  ADVISED CALLER TO CALL MANAGEMENT 10/15/12 ","Sidewalk Cover / Manhole","Boston Water & Sewer Commission","Sidewalk Cover / Manhole","Sidewalk Cover / Manhole","INFO01_GenericeFormforOtherServiceRequestTypes","INFO","","","15-17 Kerr Pl  Mission Hill  MA  02120",9,"10B",7,"B2","Mission Hill",13,"09","0904","15-17 Kerr Pl",2120,42.3339,-71.0846,"Constituent Call"
101000493957,"2012-10-18 10:32:09","","2012-10-19 10:31:45","ONTIME","Closed","Case Closed Case Resolved A BWSC crew replaced the broken cover on 10/18. ","Sidewalk Cover / Manhole","Boston Water & Sewer Commission","Sidewalk Cover / Manhole","Sidewalk Cover / Manhole","BWSC_All Cases","BWSC","","","4 Rutland Sq  Roxbury  MA  02118",4,"1C",7,"D4","South End",6,"Ward 4","0404","4 Rutland Sq",2118,42.3412,-71.0778,"Constituent Call"
101000495678,"2012-10-22 16:00:59","","2012-10-23 10:31:57","ONTIME","Closed","Case Closed Case Noted Crew investigated 10/22 found no loose or missing covers in area. ","Sidewalk Cover / Manhole","Boston Water & Sewer Commission","Sidewalk Cover / Manhole","Sidewalk Cover / Manhole","BWSC_All Cases","BWSC","","","INTERSECTION of Hyde Park Ave & Walk Hill St  Jamaica Plain  MA  ",12,"02",6,"E13","Jamaica Plain",10,"Ward 19","1907","INTERSECTION Hyde Park Ave & Walk Hill St",NA,42.2961,-71.1162,"Constituent Call"
101000496829,"2012-10-24 19:45:48","","2012-10-25 15:12:49","ONTIME","Closed","Case Closed Case Noted Secured meter box cover 10/24. ","Sidewalk Cover / Manhole","Boston Water & Sewer Commission","Sidewalk Cover / Manhole","Sidewalk Cover / Manhole","BWSC_All Cases","BWSC","","","230 Warren St  Roxbury  MA  02119",7,"10B",7,"B2","Roxbury",13,"Ward 12","1201","230 Warren St",2119,42.323,-71.0819,"Constituent Call"
101000497839,"2012-10-27 10:55:17","","2013-04-05 15:42:34","ONTIME","Closed","Case Closed Case Resolved NOT A BWSC COVER HERE. FOUND A COAL STORAGE COVER ON SIDEWALK AJAR  PUT IT BACK ON. OKAY NOW.10/27/12 ","Sidewalk Cover / Manhole","Boston Water & Sewer Commission","Sidewalk Cover / Manhole","Sidewalk Cover / Manhole","INFO_Areaway","INFO","","","INTERSECTION of Beacon St & Fairfield St  Boston  MA  ",4,"1C",8,"D4","Back Bay",14,"Ward 5","0508","INTERSECTION Beacon St & Fairfield St",NA,42.3525,-71.0835,"Constituent Call"
101000500492,"2012-10-30 21:00:45","","2012-10-31 12:13:00","ONTIME","Closed","Case Closed Case Resolved Crew checked area and did not find missing covers 10/30. ","Sidewalk Cover / Manhole","Boston Water & Sewer Commission","Sidewalk Cover / Manhole","Sidewalk Cover / Manhole","BWSC_All Cases","BWSC","","","20 Somerset St  Boston  MA  02108",3,"1B",1,"A1","Downtown / Financial District",3,"03","0306","20 Somerset St",2108,42.3597,-71.0617,"Constituent Call"
101000501524,"2012-11-01 12:12:00","","2013-05-13 09:45:10","ONTIME","Closed","Case Closed Case Referred to External Agency RCN (cable company) jurisdiction.  Details forwarded. ","Sidewalk Cover / Manhole","Boston Water & Sewer Commission","Sidewalk Cover / Manhole","Sidewalk Cover / Manhole","INFO_Reallocation From Dept","INFO","","","INTERSECTION of Colgate Rd & Washington St  Roslindale  MA  ",12,"02",5,"E5","Roslindale",10,"Ward 19","1911","INTERSECTION Colgate Rd & Washington St",NA,42.2933,-71.1208,"Constituent Call"
101000502417,"2012-11-03 10:09:53","","2012-11-05 11:19:08","ONTIME","Closed","Case Closed Case Resolved Crew investigated 11/3 found no missing cover or open manhole.  ","Sidewalk Cover / Manhole","Boston Water & Sewer Commission","Sidewalk Cover / Manhole","Sidewalk Cover / Manhole","BWSC_All Cases","BWSC","","","48 Dale St  Roxbury  MA  02119",9,"10B",7,"B2","Roxbury",13,"Ward 12","1205","48 Dale St",2119,42.3207,-71.0845,"Constituent Call"
101000502759,"2012-11-04 22:36:20","","2012-12-03 09:06:32","ONTIME","Closed","Case Closed Case Resolved Crew raised manhole cover to grade 12/01/12 ","Sidewalk Cover / Manhole","Boston Water & Sewer Commission","Sidewalk Cover / Manhole","Sidewalk Cover / Manhole","BWSC_All Cases","BWSC","","","5 Blossom St  Boston  MA  02114",3,"1B",8,"A1","Beacon Hill",3,"Ward 3","0305","5 Blossom St",2114,42.3619,-71.0666,"Constituent Call"
101000504883,"2012-11-08 14:11:07","","2013-05-13 09:46:26","ONTIME","Closed","Case Closed Case Referred to External Agency NGrid jurisdiction.  Details forwarded. ","Sidewalk Cover / Manhole","Boston Water & Sewer Commission","Sidewalk Cover / Manhole","Sidewalk Cover / Manhole","INFO_Reallocation From Dept","INFO","","","347 Bowdoin St  Dorchester  MA  02122",7,"03",3,"C11","Dorchester",8,"Ward 15","1504","347 Bowdoin St",2122,42.309,-71.0638,"Constituent Call"
101000505215,"2012-11-09 12:18:40","","2012-11-13 12:38:22","ONTIME","Closed","Case Closed Case Resolved Crew replaced cover 11/9. ","Sidewalk Cover / Manhole","Boston Water & Sewer Commission","Sidewalk Cover / Manhole","Sidewalk Cover / Manhole","BWSC_All Cases","BWSC","","","33 Harry Agganis Way  Boston  MA  02215",11,"04",8,"D14","Allston / Brighton",14,"21","2102","33 Harry Agganis Way",2215,42.3532,-71.1178,"Constituent Call"
101000704279,"2012-11-11 13:48:21","","2013-08-14 15:09:37","ONTIME","Closed","Case Closed Case Noted Closed due to age of case ","Sidewalk Cover / Manhole","Boston Water & Sewer Commission","Sidewalk Cover / Manhole","Sidewalk Cover / Manhole","INFO_Reallocation From Dept","INFO","","","260 Hyde Park Ave  Jamaica Plain  MA  02130",12,"02",6,"E13","Jamaica Plain",10,"Ward 19","1907","260 Hyde Park Ave",2130,42.2926,-71.1174,"Constituent Call"
101000706991,"2012-11-15 15:55:42","","2013-02-19 08:52:37","ONTIME","Closed","Case Closed Case Resolved Manhole repaired 10/25/12 and temporarily paved on 11/28/12 ","Sidewalk Cover / Manhole","Boston Water & Sewer Commission","Sidewalk Cover / Manhole","Sidewalk Cover / Manhole","BWSC_All Cases","BWSC","","","198 South St  Jamaica Plain  MA  02130",9,"02",6,"E13","Jamaica Plain",11,"Ward 11","1110","198 South St",2130,42.3034,-71.1144,"Constituent Call"
101000708353,"2012-11-19 08:33:21","","2013-05-31 12:07:24","ONTIME","Closed","Case Closed Case Resolved BWSC CONTRACTOR MADE REPAIR TO STREET 5/6/2013 ","Sidewalk Cover / Manhole","Boston Water & Sewer Commission","Sidewalk Cover / Manhole","Sidewalk Cover / Manhole","BWSC_All Cases","BWSC","","","100 Ferrin St  Charlestown  MA  02129",3,"1A",1,"A15","Charlestown",2,"02","0204","100 Ferrin St",2129,42.3775,-71.059,"Constituent Call"
101000709689,"2012-11-20 14:36:14","","2013-04-05 16:10:15","ONTIME","Closed","Case Closed Case Resolved CREEK SQ CENT BLACKSTONE ST STINV (4) MH'S 25KMH434  25KMH474  25KMH433  25KMH475 ARE HIGH  BUT BRICK WORK IS SOLID STILL TO ORIGINAL GRADE. THIS IS A ROADWAY ISSUE STREET SETTLED. THERE IS (1) CB IN THE REAR WHERE BWSC DID WORK NEED TO RESET/REPLACE COBBLESTONES. OK NOW    ","Sidewalk Cover / Manhole","Boston Water & Sewer Commission","Sidewalk Cover / Manhole","Sidewalk Cover / Manhole","BWSC_All Cases","BWSC","","","INTERSECTION of Creek Sq & Salt Ln  Boston  MA  ",3,"1B",1,"A1","Downtown / Financial District",3,"Ward 3","0306","INTERSECTION Creek Sq & Salt Ln",NA,42.3611,-71.0564,"Constituent Call"
101000710653,"2012-11-23 09:50:27","","2013-02-19 08:46:26","ONTIME","Closed","Case Closed Case Resolved No missing covers upon arrival 11/29/12 ","Sidewalk Cover / Manhole","Boston Water & Sewer Commission","Sidewalk Cover / Manhole","Sidewalk Cover / Manhole","BWSC_All Cases","BWSC","","","INTERSECTION of American Legion Hwy & Hyde Park Ave  Roslindale  MA  ",12,"08",5,"E18","Hyde Park",10,"Ward 18","1808","INTERSECTION American Legion Hwy & Hyde Park Ave",NA,42.2726,-71.1202,"Constituent Call"
101000720094,"2012-12-11 14:19:01","","2013-07-11 18:00:53","ONTIME","Closed","Case Closed Case Noted ","Sidewalk Cover / Manhole","Boston Water & Sewer Commission","Sidewalk Cover / Manhole","Sidewalk Cover / Manhole","PWDx_Street Light_General Lighting Request","PWDx","","","785 Tremont St  Roxbury  MA  02118",9,"10B",7,"D4","Roxbury",13,"09","0903","785 Tremont St",2118,42.3393,-71.0811,"Constituent Call"
101000720310,"2012-12-12 08:01:57","","2012-12-12 13:54:22","ONTIME","Closed","Case Closed Case Resolved This was an NSTAR cover  crew put the cover back on. 12/12/12 ","Sidewalk Cover / Manhole","Boston Water & Sewer Commission","Sidewalk Cover / Manhole","Sidewalk Cover / Manhole","BWSC_All Cases","BWSC","","","INTERSECTION of Bowdoin St & Hendry St  Dorchester  MA  ",7,"03",3,"C11","Dorchester",8,"Ward 15","1504","INTERSECTION Bowdoin St & Hendry St",NA,42.3087,-71.0644,"Constituent Call"
101000721646,"2012-12-14 08:31:39","","2012-12-17 16:50:02","ONTIME","Closed","Case Closed Case Resolved PWD called and cancelled this request  the casting belongs to MBTA. 12/14/12 ","Sidewalk Cover / Manhole","Boston Water & Sewer Commission","Sidewalk Cover / Manhole","Sidewalk Cover / Manhole","BWSC_All Cases","BWSC","","","390 Meridian St  East Boston  MA  02128",1,"09",1,"A7","East Boston",1,"Ward 1","0107","390 Meridian St",2128,42.3796,-71.0395,"Constituent Call"
101000723059,"2012-12-17 15:46:11","","2012-12-18 15:55:02","ONTIME","Closed","Case Closed Case Resolved Crew found no missing or loose manhole covers in area 12/17. ","Sidewalk Cover / Manhole","Boston Water & Sewer Commission","Sidewalk Cover / Manhole","Sidewalk Cover / Manhole","BWSC_All Cases","BWSC","","","INTERSECTION of Chelsea St & Constitution Rd  Charlestown  MA  ",3,"1A",1,"A15","Charlestown",2,"Ward 2","0202","INTERSECTION Chelsea St & Constitution Rd",NA,42.3737,-71.0583,"Constituent Call"
101000723186,"2012-12-18 06:34:47","","2013-05-13 09:46:57","ONTIME","Closed","Case Closed Case Noted Referred to BFD ","Sidewalk Cover / Manhole","Boston Water & Sewer Commission","Sidewalk Cover / Manhole","Sidewalk Cover / Manhole","INFO_Reallocation From Dept","INFO","","","INTERSECTION of Corey St & Pomfret St  West Roxbury  MA  ",12,"06",6,"E5","West Roxbury",12,"Ward 20","2018","INTERSECTION Corey St & Pomfret St",NA,42.29,-71.1592,"Constituent Call"
101000723201,"2012-12-18 07:31:54","","2013-01-16 09:37:12","ONTIME","Closed","Case Closed Case Resolved Cleaned and disinfected 2 catch basins 1/15/13 ","Sidewalk Cover / Manhole","Boston Water & Sewer Commission","Sidewalk Cover / Manhole","Sidewalk Cover / Manhole","BWSC_All Cases","BWSC","","","213 Boylston St  Jamaica Plain  MA  02130",9,"02",6,"E13","Jamaica Plain",11,"Ward 11","1106","213 Boylston St",2130,42.3137,-71.1011,"Constituent Call"
101000723226,"2012-12-18 08:19:21","","2012-12-18 10:29:11","ONTIME","Closed","Case Closed Case Resolved Veolia Steam on site pumping manhole steam conming from manholes at intersection  they are working on issue 12/18. ","Sidewalk Cover / Manhole","Boston Water & Sewer Commission","Sidewalk Cover / Manhole","Sidewalk Cover / Manhole","BWSC_All Cases","BWSC","","","INTERSECTION of Atlantic Ave & Kneeland St  Boston  MA  ",4,"1C",2,"A1","Downtown / Financial District",4,"Ward 3","0308","INTERSECTION Atlantic Ave & Kneeland St",NA,42.3495,-71.0571,"Constituent Call"
101000724718,"2012-12-20 17:00:34","","2013-08-12 16:23:53","ONTIME","Closed","Case Closed Case Noted NOT BWSC ","Sidewalk Cover / Manhole","Boston Water & Sewer Commission","Sidewalk Cover / Manhole","Sidewalk Cover / Manhole","PWDx_Utility Casting Repair","PWDx","","","9 Spruce Pl  Boston  MA  02108",3,"1B",8,"A1","Beacon Hill",14,"Ward 5","0503","9 Spruce Pl",2108,42.3571,-71.0674,"Constituent Call"
101000728127,"2012-12-30 09:32:05","","2012-12-31 11:56:19","ONTIME","Closed","Case Closed Case Resolved NO MISSING MH COVER   PLATE SHIFTED   POLICE ON SIGHT WAITING FOR CONTRACTOR 12/30. ","Sidewalk Cover / Manhole","Boston Water & Sewer Commission","Sidewalk Cover / Manhole","Sidewalk Cover / Manhole","BWSC_All Cases","BWSC","","","319-329 A St  Boston  MA  02210",6,"05",2,"C6","Boston",5,"06","0601","319-329 A St",2210,42.349,-71.049,"Constituent Call"
101000728989,"2012-12-31 11:15:04","","2012-12-31 15:42:44","ONTIME","Closed","Case Closed Case Resolved Replaced sidewalk cover 12/31. ","Sidewalk Cover / Manhole","Boston Water & Sewer Commission","Sidewalk Cover / Manhole","Sidewalk Cover / Manhole","BWSC_All Cases","BWSC","","","291-293 Cummins Hwy  Roslindale  MA  02131",12,"08",5,"E18","Roslindale",10,"Ward 18","1808","291-293 Cummins Hwy",2131,42.2796,-71.1185,"Constituent Call"
101000736509,"2013-01-14 09:26:02","","2013-01-15 08:27:24","ONTIME","Closed","Case Closed Case Resolved Contractor working in area has manholes open 1/14. ","Sidewalk Cover / Manhole","Boston Water & Sewer Commission","Sidewalk Cover / Manhole","Sidewalk Cover / Manhole","BWSC_All Cases","BWSC","","","INTERSECTION of Brookline Ave & Riverway  Boston  MA  ",4,"10A",8,"B2","Fenway / Kenmore / Audubon Circle / Longwood",14,"Ward 10","1004","INTERSECTION Brookline Ave & Riverway",NA,42.3363,-71.1101,"Constituent Call"
101000737742,"2013-01-15 18:29:10","","2013-01-18 10:40:58","ONTIME","Closed","Case Closed Case Referred to External Agency State jurisdiction. Information forwarded to MassDoT. ","Sidewalk Cover / Manhole","Boston Water & Sewer Commission","Sidewalk Cover / Manhole","Sidewalk Cover / Manhole","INFO_Reallocation From Dept","INFO","","","65 Chelsea St  Charlestown  MA  02129",3,"1A",1,"A15","Charlestown",2,"02","0201","65 Chelsea St",2129,42.373,-71.0589,"Constituent Call"
101000737924,"2013-01-16 09:01:44","","2013-01-18 12:35:55","ONTIME","Closed","Case Closed Case Resolved Leak crew investigated on 1/16/13-correlated area  no leak found. Re-investigated on 1/17/13. Water no longer surfacing here  correlated again  no leak detected. ","Sidewalk Cover / Manhole","Boston Water & Sewer Commission","Sidewalk Cover / Manhole","Sidewalk Cover / Manhole","BWSC_All Cases","BWSC","","","212 Boylston St  Jamaica Plain  MA  02130",9,"02",6,"E13","Jamaica Plain",11,"Ward 11","1104","212 Boylston St",2130,42.3139,-71.1007,"Constituent Call"
101000738287,"2013-01-16 15:48:53","","2013-01-17 08:44:14","ONTIME","Closed","Case Closed Case Resolved Crew replaced cover 1/16. ","Sidewalk Cover / Manhole","Boston Water & Sewer Commission","Sidewalk Cover / Manhole","Sidewalk Cover / Manhole","BWSC_All Cases","BWSC","","","772-778 Boylston St  Boston  MA  02199",4,"1C",2,"D4","Back Bay",6,"Ward 4","0402","772-778 Boylston St",2199,42.3487,-71.0816,"Constituent Call"
101000739744,"2013-01-20 01:28:02","","2013-01-22 09:20:35","ONTIME","Closed","Case Closed Case Resolved ON ARRIVAL FOUND COVER TURNED UPSIDE DOWN FLIP OVER TO SEE IF BWSC COVER IT FELL IN TO PLACE IT WAS A TELEPHONE COVER SECURE ON DEPARTURE 1/20. ","Sidewalk Cover / Manhole","Boston Water & Sewer Commission","Sidewalk Cover / Manhole","Sidewalk Cover / Manhole","BWSC_All Cases","BWSC","","","665 Huntington Ave  Boston  MA  02115",9,"10A",8,"B2","Boston",14,"04","0410","665 Huntington Ave",2115,42.3356,-71.1017,"Constituent Call"
101000740264,"2013-01-22 07:35:57","","2013-01-24 11:28:50","ONTIME","Closed","Case Closed Case Referred to External Agency NStar jurisdiction.  Details forwarded. ","Sidewalk Cover / Manhole","Boston Water & Sewer Commission","Sidewalk Cover / Manhole","Sidewalk Cover / Manhole","INFO_Reallocation From Dept","INFO","","","190 High St  Boston  MA  02110",3,"1C",1,"A1","Downtown / Financial District",3,"Ward 3","0306","190 High St",2110,42.3567,-71.0523,"Constituent Call"
101000745459,"2013-01-31 10:35:48","","2013-05-20 15:05:48","ONTIME","Closed","Case Closed Case Resolved ","Sidewalk Cover / Manhole","Boston Water & Sewer Commission","Sidewalk Cover / Manhole","Sidewalk Cover / Manhole","PWDx_Street Light_General Lighting Request","PWDx","","","2 Sackville St  Charlestown  MA  02129",3,"1A",1,"A15","Charlestown",2,"Ward 2","0205","2 Sackville St",2129,42.3807,-71.0653,"Constituent Call"
101000749793,"2013-02-08 07:26:45","","2013-02-12 11:06:10","ONTIME","Closed","Case Closed Case Resolved BWSC Crew sealed loose cover all set 2/8. ","Sidewalk Cover / Manhole","Boston Water & Sewer Commission","Sidewalk Cover / Manhole","Sidewalk Cover / Manhole","BWSC_All Cases","BWSC","","","187-189 Walworth St  Roslindale  MA  02131",12,"06",5,"E5","Roslindale",10,"Ward 20","2009","187-189 Walworth St",2131,42.2791,-71.1373,"Constituent Call"
101000752108,"2013-02-09 12:23:29","","2013-02-14 09:41:34","ONTIME","Closed","Case Closed Case Resolved Contractor repaired manhole 2/13. ","Sidewalk Cover / Manhole","Boston Water & Sewer Commission","Sidewalk Cover / Manhole","Sidewalk Cover / Manhole","BWSC_All Cases","BWSC","","","97 Mount Pleasant Ave  Roxbury  MA  02119",7,"10B",7,"B2","Roxbury",13,"Ward 8","0807","97 Mount Pleasant Ave",2119,42.3253,-71.0777,"Constituent Call"
101000752147,"2013-02-09 12:30:04","","2013-02-14 09:40:52","ONTIME","Closed","Case Closed Case Resolved Contractor repaired manhole 2/13. ","Sidewalk Cover / Manhole","Boston Water & Sewer Commission","Sidewalk Cover / Manhole","Sidewalk Cover / Manhole","BWSC_All Cases","BWSC","","","97 Mount Pleasant Ave  Roxbury  MA  02119",7,"10B",7,"B2","Roxbury",13,"Ward 8","0807","97 Mount Pleasant Ave",2119,42.3253,-71.0777,"Constituent Call"
101000769326,"2013-02-10 16:37:09","","2013-02-11 16:06:52","ONTIME","Closed","Case Closed Case Resolved BWSC CREW REPLACED A-2 FRAME AND COVER 2/10/13. ","Sidewalk Cover / Manhole","Boston Water & Sewer Commission","Sidewalk Cover / Manhole","Sidewalk Cover / Manhole","BWSC_All Cases","BWSC","","","61 Church St  West Roxbury  MA  02132",9,"06",6,"E5","West Roxbury",12,"Ward 20","2006","61 Church St",2132,42.29,-71.1466,"Constituent Call"
101000777475,"2013-02-12 07:58:18","","2013-02-12 14:26:34","ONTIME","Closed","Case Closed Case Resolved BWSC Crew investigated contractor on site making repair 2/12. ","Sidewalk Cover / Manhole","Boston Water & Sewer Commission","Sidewalk Cover / Manhole","Sidewalk Cover / Manhole","BWSC_All Cases","BWSC","","","INTERSECTION of Buchanan Rd & Centre St  Roslindale  MA  ",9,"06",6,"E5","Roslindale",12,"Ward 20","2006","INTERSECTION Buchanan Rd & Centre St",NA,42.2959,-71.1343,"Constituent Call"
101000782979,"2013-02-14 15:51:58","","2013-02-15 16:22:34","ONTIME","Closed","Case Closed Case Referred to External Agency MBTA jurisdiction. Information forwarded to the MBTA. ","Sidewalk Cover / Manhole","Boston Water & Sewer Commission","Sidewalk Cover / Manhole","Sidewalk Cover / Manhole","INFO_Reallocation From Dept","INFO","","","INTERSECTION of E First St & O St  South Boston  MA  ",6,"05",2,"C6","South Boston / South Boston Waterfront",5,"Ward 6","0609","INTERSECTION E First St & O St",NA,42.3383,-71.0293,"Constituent Call"
101000784244,"2013-02-15 15:55:07","","2013-02-19 12:28:50","ONTIME","Closed","Case Closed Case Resolved Replaced broken A2 cover 2/15/13 ","Sidewalk Cover / Manhole","Boston Water & Sewer Commission","Sidewalk Cover / Manhole","Sidewalk Cover / Manhole","BWSC_All Cases","BWSC","","","185-215 Old Colony Ave  South Boston  MA  02127",6,"05",2,"C6","South Boston / South Boston Waterfront",5,"Ward 7","0705","185-215 Old Colony Ave",2127,42.3334,-71.0545,"Constituent Call"
101000784249,"2013-02-15 16:04:46","","2013-02-19 12:28:11","ONTIME","Closed","Case Closed Case Resolved Replaced 9x9 cover 2/15/13 ","Sidewalk Cover / Manhole","Boston Water & Sewer Commission","Sidewalk Cover / Manhole","Sidewalk Cover / Manhole","BWSC_All Cases","BWSC","","","2249-2259 Washington St  Roxbury  MA  02119",7,"10B",7,"B2","Roxbury",13,"Ward 9","0905","2249-2259 Washington St",2119,42.3308,-71.0833,"Constituent Call"
101000784283,"2013-02-15 16:29:46","","2013-02-19 12:27:24","ONTIME","Closed","Case Closed Case Resolved Replaced a broken A2 cover 2/15/13 ","Sidewalk Cover / Manhole","Boston Water & Sewer Commission","Sidewalk Cover / Manhole","Sidewalk Cover / Manhole","BWSC_All Cases","BWSC","","","INTERSECTION of Ewer St & Old Colony Ave  South Boston  MA  ",6,"05",2,"C6","South Boston / South Boston Waterfront",5,"Ward 7","0705","INTERSECTION Ewer St & Old Colony Ave",NA,42.3343,-71.0548,"Constituent Call"
101000784787,"2013-02-16 15:18:41","","2013-02-16 15:39:44","ONTIME","Closed","Case Closed Case Referred to External Agency National Grid.  ","Sidewalk Cover / Manhole","Boston Water & Sewer Commission","Sidewalk Cover / Manhole","Sidewalk Cover / Manhole","BWSC_All Cases","BWSC","","","211-217 Berkeley St  Boston  MA  02116",4,"1C",2,"D4","Back Bay",6,"Ward 5","0501","211-217 Berkeley St",2116,42.3509,-71.0727,"Constituent Call"
101000789048,"2013-02-21 16:20:56","","2013-03-04 10:06:17","ONTIME","Closed","Case Closed Case Noted Outside of COB jurisdiction  (Everett  MA) ","Sidewalk Cover / Manhole","Boston Water & Sewer Commission","Sidewalk Cover / Manhole","Sidewalk Cover / Manhole","INFO_Reallocation From Dept","INFO","","","INTERSECTION of Alford St & Dexter St  Charlestown  MA  ",3,"1A",1,"A15","Charlestown",2,"Ward 2","0207","INTERSECTION Alford St & Dexter St",NA,42.3915,-71.0697,"Constituent Call"
101000789115,"2013-02-21 18:42:09","","2013-04-02 08:38:49","ONTIME","Closed","Case Closed Case Resolved The CIU inspector states there is no loose cover at 273 East Berkeley.     That is not to say it wasn't loose the day of the incident.     The number provided is invalid and contact can not be made with the constituent.    Closing case  however my contact information will be on the email and the constituent can contact me anytime.    Mark Cardarelli  Supervisor of Utility Coordination and Compliance  Boston Public Works Department  617-635-4951 Office  617-438-8517 Cell       ","Sidewalk Cover / Manhole","Boston Water & Sewer Commission","Sidewalk Cover / Manhole","Sidewalk Cover / Manhole","PWDx_Contractor Complaints","PWDx","","","273 E Berkeley St  Roxbury  MA  02118",4,"1C",2,"D4","South End",4,"03","0307","273 E Berkeley St",2118,42.3428,-71.0631,"Constituent Call"
101000792966,"2013-02-27 19:20:27","","2013-03-05 12:18:47","ONTIME","Closed","Case Closed Case Resolved Put manhole cover back on 2/27 ","Sidewalk Cover / Manhole","Boston Water & Sewer Commission","Sidewalk Cover / Manhole","Sidewalk Cover / Manhole","BWSC_All Cases","BWSC","","","278-294 Congress St  Boston  MA  02110",6,"1C",1,"A1","Boston",3,"03","0306","278-294 Congress St",2110,42.3533,-71.0526,"Constituent Call"
101000793696,"2013-02-28 15:23:56","2013-03-01 12:26:55","2013-03-04 09:58:25","OVERDUE","Closed","Case Closed Case Referred to External Agency NStar jurisdiction.  Details forwarded. ","Sidewalk Cover / Manhole","Boston Water & Sewer Commission","Sidewalk Cover / Manhole","Sidewalk Cover / Manhole","INFO_Reallocation From Dept","INFO","","","97 Lonsdale St  Dorchester  MA  02124",8,"07",3,"C11","Dorchester",7,"Ward 16","1606","97 Lonsdale St",2124,42.2909,-71.0586,"Constituent Call"
101000794780,"2013-03-02 13:18:40","","2013-03-06 08:08:34","ONTIME","Closed","Case Closed Case Resolved The CIU contacted N.Star Electric who dispatched Sheerin to the location.    Both N.Star and Sheerin removed the plate with the Sheerin name on it and discovered that this was an abandon work zone. That the work was water related and the plate was stolen from a  Sheerin work zone sometime in the past.    There is no record of a permit pulled at the location  in addition BWSC engineering states nobody submitted an engineering plan.    N.Star secured the plate on Sunday and then as a favor to the city back filled and paved the opening on Monday.    The CIU  will still try to find who did this work.    Mark Cardarelli  Supervisor of Utility Coordination and Compliance  Boston Public Works Department  Office 617-635-4951  Cell 617-438-8517   ","Sidewalk Cover / Manhole","Boston Water & Sewer Commission","Sidewalk Cover / Manhole","Sidewalk Cover / Manhole","PWDx_Contractor Complaints","PWDx","","","177 Commonwealth Ave  Boston  MA  02116",4,"1C",8,"D4","Back Bay",14,"Ward 5","0507","177 Commonwealth Ave",2116,42.3519,-71.0798,"Constituent Call"
101000801230,"2013-03-11 08:24:11","","2013-08-15 10:38:42","ONTIME","Closed","Case Closed Case Noted Not BWSC  Notified Info 8/15/2013 ","Sidewalk Cover / Manhole","Boston Water & Sewer Commission","Sidewalk Cover / Manhole","Sidewalk Cover / Manhole","INFO_Reallocation From Dept","INFO","","","5 Freeport Way  Dorchester  MA  02125",7,"03",3,"C11","Dorchester",8,"Ward 15","1506","5 Freeport Way",2125,42.3061,-71.0574,"Constituent Call"
101000805029,"2013-03-15 14:06:25","","","ONTIME","Open"," ","Sidewalk Cover / Manhole","Boston Water & Sewer Commission","Sidewalk Cover / Manhole","Sidewalk Cover / Manhole","INFO01_GenericeFormforOtherServiceRequestTypes","INFO","","","INTERSECTION of Cambridge St & Sparhawk St  Brighton  MA  ",11,"04",9,"D14","Allston / Brighton",15,"Ward 21","2109","INTERSECTION Cambridge St & Sparhawk St",NA,42.3501,-71.147,"Constituent Call"
101000805525,"2013-03-16 19:40:31","","2013-03-16 21:41:35","ONTIME","Closed","Case Closed Case Invalid ","Sidewalk Cover / Manhole","Boston Water & Sewer Commission","Sidewalk Cover / Manhole","Sidewalk Cover / Manhole","BWSC_All Cases","BWSC","","","16 High St  Dorchester  MA  02122",7,"03",3,"C11","Dorchester",8,"Ward 15","1504","16 High St",2122,42.3096,-71.0607,"Constituent Call"
101000805543,"2013-03-16 21:22:06","","2014-01-09 16:32:44","ONTIME","Closed","Case Closed Case Resolved FOUND NO MISSING COVER 3/18/2013. THIS IS AN OLD REQUEST ","Sidewalk Cover / Manhole","Boston Water & Sewer Commission","Sidewalk Cover / Manhole","Sidewalk Cover / Manhole","INFO01_GenericeFormforOtherServiceRequestTypes","INFO","","","INTERSECTION of Congress St & High St  Boston  MA  ",6,"1C",1,"A1","Downtown / Financial District",3,"Ward 3","0306","INTERSECTION Congress St & High St",NA,42.3546,-71.0546,"Constituent Call"
101000806771,"2013-03-19 09:56:18","","2013-03-19 15:47:32","ONTIME","Closed","Case Closed Case Resolved Found no broken covers 3/19/13 ","Sidewalk Cover / Manhole","Boston Water & Sewer Commission","Sidewalk Cover / Manhole","Sidewalk Cover / Manhole","BWSC_All Cases","BWSC","","","201 Brookline Ave  Boston  MA  02215",4,"10A",8,"D4","Boston",14,"21","2101","201 Brookline Ave",2215,42.3447,-71.1022,"Constituent Call"
101000807036,"2013-03-19 13:19:56","","2013-06-27 09:36:20","ONTIME","Closed","Case Closed Case Referred to External Agency DCR jurisdiction. Details forwarded. ","Sidewalk Cover / Manhole","Boston Water & Sewer Commission","Sidewalk Cover / Manhole","Sidewalk Cover / Manhole","INFO_Reallocation From Dept","INFO","","","INTERSECTION of Eliot St & Jamaicaway  Jamaica Plain  MA  ",9,"02",6,"E13","Jamaica Plain",11,"Ward 19","1903","INTERSECTION Eliot St & Jamaicaway",NA,42.3138,-71.1197,"Constituent Call"
101000807218,"2013-03-19 16:25:49","","2013-03-20 08:47:15","ONTIME","Closed","Case Closed Case Resolved Crew backfilled and patch replaced cover 3/19. ","Sidewalk Cover / Manhole","Boston Water & Sewer Commission","Sidewalk Cover / Manhole","Sidewalk Cover / Manhole","BWSC_All Cases","BWSC","","","25 Charles St  Charlestown  MA  02129",3,"1A",1,"A15","Charlestown",2,"Ward 2","0207","25 Charles St",2129,42.3827,-71.0707,"Constituent Call"
101000808860,"2013-03-21 17:33:28","","2013-06-20 16:39:43","ONTIME","Closed","Case Closed Case Resolved Inspected are no missing covers 3/21/2013 ","Sidewalk Cover / Manhole","Boston Water & Sewer Commission","Sidewalk Cover / Manhole","Sidewalk Cover / Manhole","BWSC_All Cases","BWSC","","","100 S Huntington Ave  Mission Hill  MA  02120",9,"10A",8,"E13","Mission Hill",11,"Ward 10","1008","100 S Huntington Ave",2120,42.3293,-71.1104,"Constituent Call"
101000813326,"2013-03-29 06:39:35","","2013-06-20 16:57:52","ONTIME","Closed","Case Closed Case Resolved REPLACED COVER ON MH. 3/29/2013 ","Sidewalk Cover / Manhole","Boston Water & Sewer Commission","Sidewalk Cover / Manhole","Sidewalk Cover / Manhole","BWSC_All Cases","BWSC","","","INTERSECTION of Albany St & Massachusetts Ave  Roxbury  MA  ",7,"1C",7,"D4","Roxbury",13,"Ward 8","0803","INTERSECTION Albany St & Massachusetts Ave",NA,42.3335,-71.0735,"Constituent Call"
101000814334,"2013-04-01 07:38:17","","","ONTIME","Open"," ","Sidewalk Cover / Manhole","Boston Water & Sewer Commission","Sidewalk Cover / Manhole","Sidewalk Cover / Manhole","INFO01_GenericeFormforOtherServiceRequestTypes","INFO","","","INTERSECTION of Maple St & Seaver St  Dorchester  MA  ",9,"10B",7,"B2","Roxbury",13,"Ward 12","1207","INTERSECTION Maple St & Seaver St",NA,42.3067,-71.0874,"Constituent Call"
101000814365,"2013-04-01 07:52:56","","","ONTIME","Open"," ","Sidewalk Cover / Manhole","Boston Water & Sewer Commission","Sidewalk Cover / Manhole","Sidewalk Cover / Manhole","INFO01_GenericeFormforOtherServiceRequestTypes","INFO","","","260 Seaver St  Dorchester  MA  02121",9,"10B",7,"B2","Roxbury",13,"Ward 12","1207","260 Seaver St",2121,42.3064,-71.0864,"Constituent Call"
101000815486,"2013-04-02 12:17:44","","2013-07-02 16:49:58","ONTIME","Closed","Case Closed Case Noted Closed due to time lapse ","Sidewalk Cover / Manhole","Boston Water & Sewer Commission","Sidewalk Cover / Manhole","Sidewalk Cover / Manhole","INFO_Reallocation From Dept","INFO","","","INTERSECTION of Cambridge St & Spice St  Charlestown  MA  ",3,"1A",1,"A15","Charlestown",2,"Ward 2","0207","INTERSECTION Cambridge St & Spice St",NA,42.3836,-71.0754,"Constituent Call"
101000816591,"2013-04-03 21:24:21","","2013-04-04 09:33:02","ONTIME","Closed","Case Closed Case Resolved REPLACED A MISSING METER BOX COVER AT #10 4/3/13. ","Sidewalk Cover / Manhole","Boston Water & Sewer Commission","Sidewalk Cover / Manhole","Sidewalk Cover / Manhole","BWSC_All Cases","BWSC","","","6 Bickford Ave  Mission Hill  MA  02120",9,"10A",6,"B2","Mission Hill",11,"Ward 10","1006","6 Bickford Ave",2120,42.3267,-71.1025,"Constituent Call"
101000819598,"2013-04-09 12:36:53","","2013-04-09 16:38:54","ONTIME","Closed","Case Closed Case Resolved Replaced a new style cover 4/9/13 ","Sidewalk Cover / Manhole","Boston Water & Sewer Commission","Sidewalk Cover / Manhole","Sidewalk Cover / Manhole","BWSC_All Cases","BWSC","","","188 Boston St  Dorchester  MA  02125",6,"03",2,"C6","Dorchester",5,"Ward 7","0709","188 Boston St",2125,42.3233,-71.0602,"Constituent Call"
101000820578,"2013-04-10 16:26:24","","2013-04-11 13:58:22","ONTIME","Closed","Case Closed Case Resolved Crew investigated found no sunken 14x16  found a recently raised to grade 4/11. ","Sidewalk Cover / Manhole","Boston Water & Sewer Commission","Sidewalk Cover / Manhole","Sidewalk Cover / Manhole","BWSC_All Cases","BWSC","","","466-472 Atlantic Ave  Boston  MA  02110",6,"1C",1,"A1","Downtown / Financial District",3,"Ward 3","0306","466-472 Atlantic Ave",2110,42.3542,-71.0514,"Employee Generated"
101000366319,"2011-12-20 13:49:49","","2011-12-21 13:50:54","ONTIME","Closed","Case Closed Case Resolved A BWSC crew sealed manhole cover. ","Sidewalk Cover / Manhole","Boston Water & Sewer Commission","Sidewalk Cover / Manhole","Sidewalk Cover / Manhole","BWSC_All Cases","BWSC","","","16 Miner St  Boston  MA  02215",4,"10A",8,"D4","Fenway / Kenmore / Audubon Circle / Longwood",14,"Ward 21","2102","16 Miner St",2215,42.3466,-71.1028,"Constituent Call"
101000824878,"2013-04-20 11:03:07","","2013-04-22 10:27:58","ONTIME","Closed","Case Closed Case Referred to External Agency This is a Cable TV Manhole  notified the mayor?s office. 4/20/13 ","Sidewalk Cover / Manhole","Boston Water & Sewer Commission","Sidewalk Cover / Manhole","Sidewalk Cover / Manhole","BWSC_All Cases","BWSC","","","INTERSECTION of Blue Hill Ave & Creston St  Dorchester  MA  ",7,"03",4,"B2","Roxbury",13,"Ward 14","1401","INTERSECTION Blue Hill Ave & Creston St",NA,42.3127,-71.0801,"Constituent Call"
101000824881,"2013-04-20 11:10:58","","2013-04-23 08:38:18","ONTIME","Closed","Case Closed Case Referred to External Agency This is a cable tv manhole  notified Mayor?s Office 4/20/13 ","Sidewalk Cover / Manhole","Boston Water & Sewer Commission","Sidewalk Cover / Manhole","Sidewalk Cover / Manhole","BWSC_All Cases","BWSC","","","INTERSECTION of Blue Hill Ave & Quincy St  Dorchester  MA  ",7,"03",7,"B2","Roxbury",13,"Ward 13","1301","INTERSECTION Blue Hill Ave & Quincy St",NA,42.3146,-71.0788,"Constituent Call"
101000830761,"2013-04-30 13:15:23","","2013-05-01 08:40:29","ONTIME","Closed","Case Closed Case Resolved REPLACED A MISSING JUMBO BOX COVER IN THE R/W 4/30. ","Sidewalk Cover / Manhole","Boston Water & Sewer Commission","Sidewalk Cover / Manhole","Sidewalk Cover / Manhole","BWSC_All Cases","BWSC","","","14-16 E Springfield St  Roxbury  MA  02118",4,"1C",2,"D4","South End",6,"Ward 8","0802","14-16 E Springfield St",2118,42.3366,-71.0756,"Constituent Call"
101000369333,"2011-12-31 06:09:23","","2012-01-03 09:00:54","ONTIME","Closed","Case Closed Case Resolved Crew found loose Boston Edison cover put cover on and notified the city 12/31/11. ","Sidewalk Cover / Manhole","Boston Water & Sewer Commission","Sidewalk Cover / Manhole","Sidewalk Cover / Manhole","BWSC_All Cases","BWSC","","","INTERSECTION of Chatham Row & Chatham St  Boston  MA  ",3,"1B",1,"A1","Downtown / Financial District",3,"Ward 3","0306","INTERSECTION Chatham Row & Chatham St",NA,42.3597,-71.0544,"Constituent Call"
101000834219,"2013-05-06 11:04:26","","","ONTIME","Open"," ","Sidewalk Cover / Manhole","Boston Water & Sewer Commission","Sidewalk Cover / Manhole","Sidewalk Cover / Manhole","INFO01_GenericeFormforOtherServiceRequestTypes","INFO","","","450 Poplar St  Roslindale  MA  02131",12,"08",5,"E18","Roslindale",10,"18","1809","450 Poplar St",2131,42.2748,-71.1271,"Constituent Call"
101000836877,"2013-05-09 17:43:29","","2013-05-10 10:16:53","ONTIME","Closed","Case Closed Case Resolved OPENED DRAIN M/H COVER AND RELIEVED FLOOD.5/9 ","Sidewalk Cover / Manhole","Boston Water & Sewer Commission","Sidewalk Cover / Manhole","Sidewalk Cover / Manhole","BWSC_All Cases","BWSC","","","66 Erie St  Dorchester  MA  02121",7,"03",4,"B3","Dorchester",8,"14","1406","66 Erie St",2121,42.3594,-71.0587,"Constituent Call"
101000370354,"2012-01-04 08:43:43","","2012-01-04 10:07:15","ONTIME","Closed","Case Closed Case Resolved Crew replaced cover 1/4/12. ","Sidewalk Cover / Manhole","Boston Water & Sewer Commission","Sidewalk Cover / Manhole","Sidewalk Cover / Manhole","BWSC_All Cases","BWSC","","","22 Wheatland Ave  Dorchester  MA  02124",8,"07",4,"B3","Dorchester",9,"Ward 17","1703","22 Wheatland Ave",2124,42.2935,-71.0729,"Constituent Call"
101000838776,"2013-05-13 16:22:03","","2013-05-14 08:32:54","ONTIME","Closed","Case Closed Case Resolved FOUND 2 NOISEY COVERS THE FIRST ONE WAS A 14X16 WE PUT SEAL AROUND IT AND STOPPED THE NOISE  THE OTHER COVER BELONGS TO TRIGEN. 5/13 ","Sidewalk Cover / Manhole","Boston Water & Sewer Commission","Sidewalk Cover / Manhole","Sidewalk Cover / Manhole","BWSC_All Cases","BWSC","","","519 Harrison Ave  Roxbury  MA  02118",4,"1C",2,"D4","Roxbury",4,"03","0307","519 Harrison Ave",2118,42.3416,-71.0671,"Constituent Call"
101000841646,"2013-05-17 14:48:11","","2013-05-24 10:13:29","ONTIME","Closed","Case Closed Case Resolved done 5-20-13 ","Park Maintenance: Copley Square","Boston Water & Sewer Commission","Sidewalk Cover / Manhole","Sidewalk Cover / Manhole","PARK_Administration","PARK","","","206 Clarendon St  Boston  MA  02116",4,"1C",2,"D4","Back Bay",6,"Ward 4","0402","206 Clarendon St",2116,42.3503,-71.0753,"Constituent Call"
101000842212,"2013-05-19 10:57:03","","2013-05-20 10:03:01","ONTIME","Closed","Case Closed Case Resolved PUT CB COVER BACK ON OK ON DEPARTURE 5/19     ","Sidewalk Cover / Manhole","Boston Water & Sewer Commission","Sidewalk Cover / Manhole","Sidewalk Cover / Manhole","BWSC_All Cases","BWSC","","","260 Beacon St  Boston  MA  02116",4,"1C",8,"D4","Back Bay",14,"Ward 5","0507","260 Beacon St",2116,42.3537,-71.0802,"Constituent Call"
101000843029,"2013-05-20 14:23:33","","2013-05-28 10:47:57","ONTIME","Closed","Case Closed Case Noted Investigated 5/20/13  not a BWSC manhole cover. ","Sidewalk Cover / Manhole","Boston Water & Sewer Commission","Sidewalk Cover / Manhole","Sidewalk Cover / Manhole","BWSC_All Cases","BWSC","","","55 Chelsea St  Charlestown  MA  02129",3,"1A",1,"A15","Charlestown",2,"02","0201","55 Chelsea St",2129,42.3594,-71.0587,"Constituent Call"
101000843674,"2013-05-21 10:39:29","","2013-05-22 09:04:54","ONTIME","Closed","Case Closed Case Resolved LOCATED AN A-2 LOOSE M/H COVER  SEALED WITH ROPE TAR.  OKAY NOW 5/21. ","Sidewalk Cover / Manhole","Boston Water & Sewer Commission","Sidewalk Cover / Manhole","Sidewalk Cover / Manhole","BWSC_All Cases","BWSC","","","INTERSECTION of Rockland St & Walnut Ave  Roxbury  MA  ",7,"10B",7,"B2","Roxbury",13,"Ward 12","1203","INTERSECTION Rockland St & Walnut Ave",NA,42.3225,-71.0849,"Constituent Call"
101000845334,"2013-05-23 10:00:39","","2013-08-05 13:46:55","ONTIME","Closed","Case Closed Case Referred to External Agency This location has been added to our 'Bad Casting' Database  and will be sent to NSTAR for repair.     Since this location was referred to us by CRM  it will be a top priority repair.    Thank you      Matt Albanese  Public Works Department - Construction Management  617-635-4950   ","Sidewalk Cover / Manhole","Boston Water & Sewer Commission","Sidewalk Cover / Manhole","Sidewalk Cover / Manhole","PWDx_Utility Casting Repair","PWDx","","","INTERSECTION of Harrishof St & Walnut Ave  Dorchester  MA  ",9,"10B",7,"B2","Roxbury",13,"Ward 11","1103","INTERSECTION Harrishof St & Walnut Ave",NA,42.3176,-71.0913,"Constituent Call"
101000845936,"2013-05-24 07:31:30","","2013-05-30 09:20:12","ONTIME","Closed","Case Closed Case Invalid CREW INVESTIGATED FOUND NO MISSING COVERS 5/24 ","Sidewalk Cover / Manhole","Boston Water & Sewer Commission","Sidewalk Cover / Manhole","Sidewalk Cover / Manhole","BWSC_All Cases","BWSC","","","INTERSECTION of Bayswater St & Shawsheen Rd  East Boston  MA  ",1,"09",1,"A7","East Boston",1,"Ward 1","0112","INTERSECTION Bayswater St & Shawsheen Rd",NA,42.3834,-71.0015,"Constituent Call"
101000846745,"2013-05-25 19:04:32","","2013-06-24 12:43:22","ONTIME","Closed","Case Closed Case Resolved Clean Harbors is a private contractor. 5/25/2013 ","Sidewalk Cover / Manhole","Boston Water & Sewer Commission","Sidewalk Cover / Manhole","Sidewalk Cover / Manhole","BWSC_All Cases","BWSC","","","120 Malden St  Roxbury  MA  02118",4,"1C",2,"D4","South End",6,"Ward 8","0801","120 Malden St",2118,42.3398,-71.0663,"Constituent Call"
101000373827,"2012-01-13 08:06:12","","2013-03-14 15:13:20","ONTIME","Closed","Case Closed Case Resolved Lowered Side Walk top to grade 9/10/12 ","Sidewalk Cover / Manhole","Boston Water & Sewer Commission","Sidewalk Cover / Manhole","Sidewalk Cover / Manhole","BWSC_All Cases","BWSC","",""," ",NA," ",NA," "," ",NA," "," ","",NA,42.3594,-71.0587,"Employee Generated"
101000849054,"2013-05-30 07:02:12","","2013-05-31 11:52:48","ONTIME","Closed","Case Closed Case Referred to External Agency Crew here 5/29 and 5/30  not a BWSC manhole  belongs to McCourt. ","Sidewalk Cover / Manhole","Boston Water & Sewer Commission","Sidewalk Cover / Manhole","Sidewalk Cover / Manhole","BWSC_All Cases","BWSC","","","INTERSECTION of Clarendon St & Saint James Ave  Boston  MA  ",4,"1C",2,"D4","Back Bay",6,"Ward 4","0402","INTERSECTION Clarendon St & Saint James Ave",NA,42.3498,-71.0748,"Constituent Call"
101000849143,"2013-05-30 08:41:17","","2013-05-30 08:43:08","ONTIME","Closed","Case Closed Case Invalid Incorrect eform  ","Sidewalk Cover / Manhole","Boston Water & Sewer Commission","Sidewalk Cover / Manhole","Sidewalk Cover / Manhole","BWSC_All Cases","BWSC","","","INTERSECTION of Congress St & Water St  Boston  MA  ",3,"1C",1,"A1","Downtown / Financial District",3,"Ward 3","0306","INTERSECTION Congress St & Water St",NA,42.3576,-71.0564,"Constituent Call"
101000375460,"2012-01-18 23:01:42","","2012-01-20 12:47:07","ONTIME","Closed","Case Closed Case Resolved Crew investigated found no covers raised at this location 1/19. ","Sidewalk Cover / Manhole","Boston Water & Sewer Commission","Sidewalk Cover / Manhole","Sidewalk Cover / Manhole","BWSC_All Cases","BWSC","","","INTERSECTION of Church St & Winchester St  Boston  MA  ",4,"1C",2,"A1","Back Bay",6,"Ward 5","0501","INTERSECTION Church St & Winchester St",NA,42.3496,-71.0684,"Constituent Call"
101000855701,"2013-06-08 13:25:33","","2013-07-24 12:16:30","ONTIME","Closed","Case Closed Case Referred to External Agency Veolia jurisdiction.  Details forwarded. ","Sidewalk Cover / Manhole","Boston Water & Sewer Commission","Sidewalk Cover / Manhole","Sidewalk Cover / Manhole","INFO_Reallocation From Dept","INFO","","","344-350 Boylston St  Boston  MA  02116",4,"1C",2,"D4","Back Bay",6,"Ward 5","0501","344-350 Boylston St",2116,42.3594,-71.0587,"Constituent Call"
101000858028,"2013-06-11 21:11:40","","2013-06-12 08:17:20","ONTIME","Closed","Case Closed Case Resolved FOUND 11LMH300 OPEN PUT BACK ON 6/11. ","Sidewalk Cover / Manhole","Boston Water & Sewer Commission","Sidewalk Cover / Manhole","Sidewalk Cover / Manhole","BWSC_All Cases","BWSC","","","304-304A Neponset Ave  Dorchester  MA  02122",8,"07",3,"C11","Dorchester",7,"16","1610","304-304A Neponset Ave",2122,42.2889,-71.0472,"Constituent Call"
101000377118,"2012-01-24 10:08:14","","2012-02-08 13:36:15","ONTIME","Closed","Case Closed Case Resolved An operations crew replaced the manhole cover on January 24th.  ","Sidewalk Cover / Manhole","Boston Water & Sewer Commission","Sidewalk Cover / Manhole","Sidewalk Cover / Manhole","BWSC_All Cases","BWSC","","","162 Medford St  Charlestown  MA  02129",3,"1A",1,"A15","Charlestown",2,"Ward 2","0204","162 Medford St",2129,42.3793,-71.0585,"Constituent Call"
101000377276,"2012-01-24 15:12:54","","2012-02-08 13:35:38","ONTIME","Closed","Case Closed Case Resolved An operations crew replaced the catch basin cover on January 24th.  ","Sidewalk Cover / Manhole","Boston Water & Sewer Commission","Sidewalk Cover / Manhole","Sidewalk Cover / Manhole","BWSC_All Cases","BWSC","","","INTERSECTION of Chelsea St & Constitution Rd  Charlestown  MA  ",3,"1A",1,"A15","Charlestown",2,"Ward 2","0202","INTERSECTION Chelsea St & Constitution Rd",NA,42.3737,-71.0583,"Constituent Call"
101000858848,"2013-06-12 18:29:23","","2013-06-13 09:58:26","ONTIME","Closed","Case Closed Case Invalid CHECKED AREA DIDN'T FIND ANY OPEN MANHOLES  ALSO SPOKE TO THE PEOPLE NO ONE KNEW ANYTHING. 6/12 ","Sidewalk Cover / Manhole","Boston Water & Sewer Commission","Sidewalk Cover / Manhole","Sidewalk Cover / Manhole","BWSC_All Cases","BWSC","","","401 Mount Vernon St  Dorchester  MA  02125",7,"03",3,"C6","Dorchester",7,"13","1303","401 Mount Vernon St",2125,42.3172,-71.0413,"Constituent Call"
101000860466,"2013-06-15 13:48:33","","","ONTIME","Open"," ","Sidewalk Cover / Manhole","Boston Water & Sewer Commission","Sidewalk Cover / Manhole","Sidewalk Cover / Manhole","INFO01_GenericeFormforOtherServiceRequestTypes","INFO","","","INTERSECTION of Gloucester St & Newbury St  Boston  MA  ",4,"1C",8,"D4","Back Bay",14,"Ward 5","0509","INTERSECTION Gloucester St & Newbury St",NA,42.3492,-71.0841,"Constituent Call"
101000861776,"2013-06-17 18:28:31","","2013-06-18 11:24:25","ONTIME","Closed","Case Closed Case Resolved COVERS ARE ALL IN PLACE 6/18 ","Sidewalk Cover / Manhole","Boston Water & Sewer Commission","Sidewalk Cover / Manhole","Sidewalk Cover / Manhole","BWSC_All Cases","BWSC","","","INTERSECTION of Columbia Rd & Hamilton St  Dorchester  MA  ",7,"03",3,"C11","Dorchester",8,"Ward 15","1501","INTERSECTION Columbia Rd & Hamilton St",NA,42.3101,-71.0723,"Constituent Call"
101000862259,"2013-06-18 12:37:21","","2013-06-19 10:53:36","ONTIME","Closed","Case Closed Case Resolved REPLACED A JUMBO BOX COVER 6/18 ","Sidewalk Cover / Manhole","Boston Water & Sewer Commission","Sidewalk Cover / Manhole","Sidewalk Cover / Manhole","BWSC_All Cases","BWSC","","","51 Geneva Ave  Dorchester  MA  02121",7,"03",4,"B2","Dorchester",13,"14","1403","51 Geneva Ave",2121,42.3078,-71.0811,"Constituent Call"
101000863535,"2013-06-19 19:45:28","","2013-06-20 14:16:06","ONTIME","Closed","Case Closed Case Resolved CHECK AREA FOUND LOOSE CABLE COVER **NOTIFIED MAYOR?S OFFICE HELLEN 6/20 ","Sidewalk Cover / Manhole","Boston Water & Sewer Commission","Sidewalk Cover / Manhole","Sidewalk Cover / Manhole","BWSC_All Cases","BWSC","","","285 Columbus Ave  Boston  MA  02116",4,"1C",2,"D4","South End",6,"Ward 4","0402","285 Columbus Ave",2116,42.3472,-71.0739,"Constituent Call"
101000864930,"2013-06-21 15:05:13","","","ONTIME","Open"," ","Sidewalk Cover / Manhole","Boston Water & Sewer Commission","Sidewalk Cover / Manhole","Sidewalk Cover / Manhole","INFO01_GenericeFormforOtherServiceRequestTypes","INFO","","","33 Gloucester St  Boston  MA  02116",4,"1C",8,"D4","Back Bay",14,"Ward 5","0508","33 Gloucester St",2116,42.3494,-71.084,"Constituent Call"
101000865605,"2013-06-23 15:26:00","","","ONTIME","Open"," ","Sidewalk Cover / Manhole","Boston Water & Sewer Commission","Sidewalk Cover / Manhole","Sidewalk Cover / Manhole","INFO01_GenericeFormforOtherServiceRequestTypes","INFO","","","1072 Saratoga St  East Boston  MA  02128",1,"09",1,"A7","East Boston",1,"Ward 1","0112","1072 Saratoga St",2128,42.3858,-71.0037,"Constituent Call"
101000868799,"2013-06-27 12:17:13","","2013-06-27 15:10:10","ONTIME","Closed","Case Closed Case Resolved   CHECK AREA FOUND LOOSE CABLE COVER **NOTIFIED MO HELLEN**     ","Sidewalk Cover / Manhole","Boston Water & Sewer Commission","Sidewalk Cover / Manhole","Sidewalk Cover / Manhole","INFO_Reallocation From Dept","INFO","","","285 Columbus Ave  Boston  MA  02116",4,"1C",2,"D4","South End",6,"Ward 4","0402","285 Columbus Ave",2116,42.3472,-71.0739,"Constituent Call"
101000869200,"2013-06-28 05:05:29","","2013-07-12 11:38:46","ONTIME","Closed","Case Closed Case Resolved Contractor replaced cover 7/8. ","Sidewalk Cover / Manhole","Boston Water & Sewer Commission","Sidewalk Cover / Manhole","Sidewalk Cover / Manhole","BWSC_All Cases","BWSC","","","INTERSECTION of Alford St & Cambridge St  Charlestown  MA  ",3,"1A",1,"A15","Charlestown",2,"Ward 2","0207","INTERSECTION Alford St & Cambridge St",NA,42.3848,-71.0739,"Constituent Call"
101000870463,"2013-06-30 14:24:43","","2013-07-01 08:50:24","ONTIME","Closed","Case Closed Case Resolved SEALED LOOSE A2 COVERS 6/30. ","Sidewalk Cover / Manhole","Boston Water & Sewer Commission","Sidewalk Cover / Manhole","Sidewalk Cover / Manhole","BWSC_All Cases","BWSC","","","INTERSECTION of Florence St & Sherwood St  Roslindale  MA  ",12,"02",5,"E5","Roslindale",10,"Ward 19","1913","INTERSECTION Florence St & Sherwood St",NA,42.2864,-71.1204,"Constituent Call"
101000379585,"2012-01-31 17:59:36","","2012-02-01 10:55:16","ONTIME","Closed","Case Closed Case Resolved Crew investigated no missing water or sewer covers. There is a hole in sidewalk where tree used to be has crate on it 1/31. ","Sidewalk Cover / Manhole","Boston Water & Sewer Commission","Sidewalk Cover / Manhole","Sidewalk Cover / Manhole","BWSC_All Cases","BWSC","","","888-892 Tremont St  Roxbury  MA  02118",7,"10B",7,"D4","Roxbury",13,"Ward 9","0903","888-892 Tremont St",2118,42.3379,-71.0823,"Constituent Call"
101000879002,"2013-07-14 10:44:07","","2013-07-15 14:11:44","ONTIME","Closed","Case Closed Case Resolved FOUND A LOOSE 14X16. BROKE PIPE TO SIT ON FRAME 7/14 ","Sidewalk Cover / Manhole","Boston Water & Sewer Commission","Sidewalk Cover / Manhole","Sidewalk Cover / Manhole","BWSC_All Cases","BWSC","","","INTERSECTION of Allstate Rd & Massachusetts Ave  Dorchester  MA  ",6,"03",2,"B2","Dorchester",5,"Ward 7","0708","INTERSECTION Allstate Rd & Massachusetts Ave",NA,42.3247,-71.0651,"Constituent Call"
101000881055,"2013-07-17 09:00:02","","2013-07-19 14:35:38","ONTIME","Closed","Case Closed Case Resolved REPLACED BUFFALO COVER 7/18 ","Sidewalk Cover / Manhole","Boston Water & Sewer Commission","Sidewalk Cover / Manhole","Sidewalk Cover / Manhole","BWSC_All Cases","BWSC","","","INTERSECTION of Washington St & Rollins St  Roxbury  MA  ",4,"1C",2,"D4","South End",4,"Ward 3","0307","INTERSECTION Washington St & Rollins St",NA,42.3419,-71.0683,"Constituent Call"
101000881347,"2013-07-17 12:17:33","","2013-07-17 13:49:28","ONTIME","Closed","Case Closed Case Noted This is a packing leak in down position Contractor working here is aware once repairs complete valve will be let on and leak stopped. ","Sidewalk Cover / Manhole","Boston Water & Sewer Commission","Sidewalk Cover / Manhole","Sidewalk Cover / Manhole","BWSC_All Cases","BWSC","","","INTERSECTION of Atlantic St & Thomas Park  South Boston  MA  ",6,"05",2,"C6","South Boston / South Boston Waterfront",5,"Ward 7","0703","INTERSECTION Atlantic St & Thomas Park",NA,42.3336,-71.0462,"Constituent Call"
101000885393,"2013-07-23 12:04:46","","2013-07-30 12:03:42","ONTIME","Closed","Case Closed Case Resolved   REPLACED NEW STYLE COVER 7/30   ","Sidewalk Cover / Manhole","Boston Water & Sewer Commission","Sidewalk Cover / Manhole","Sidewalk Cover / Manhole","BWSC_All Cases","BWSC","","","55 Hull St  Boston  MA  02113",3,"1B",1,"A1","Downtown / Financial District",3,"Ward 3","0302","55 Hull St",2113,42.3673,-71.0567,"Constituent Call"
101000885578,"2013-07-23 14:20:02","","2013-07-24 12:39:29","ONTIME","Closed","Case Closed Case Resolved FOUND NO MISSING OR LOOSE COVERS 7/23 ","Sidewalk Cover / Manhole","Boston Water & Sewer Commission","Sidewalk Cover / Manhole","Sidewalk Cover / Manhole","BWSC_All Cases","BWSC","","","INTERSECTION of New Sudbury St & Haymarket Sq  Boston  MA  ",3,"1B",1,"A1","Downtown / Financial District",3,"Ward 3","0306","INTERSECTION New Sudbury St & Haymarket Sq",NA,42.3629,-71.0578,"Constituent Call"
101000885601,"2013-07-23 14:31:23","","2013-07-24 12:40:47","ONTIME","Closed","Case Closed Case Resolved REPLACED COVER 7/23 ","Sidewalk Cover / Manhole","Boston Water & Sewer Commission","Sidewalk Cover / Manhole","Sidewalk Cover / Manhole","BWSC_All Cases","BWSC","","","20 East St  Dorchester  MA  02122",7,"03",3,"C11","Dorchester",8,"Ward 15","1504","20 East St",2122,42.3075,-71.0595,"Constituent Call"
101000885698,"2013-07-23 15:04:49","","2013-07-24 12:40:08","ONTIME","Closed","Case Closed Case Resolved REPLACED COVER 7/23 ","Sidewalk Cover / Manhole","Boston Water & Sewer Commission","Sidewalk Cover / Manhole","Sidewalk Cover / Manhole","BWSC_All Cases","BWSC","","","2-8 East St  Dorchester  MA  02122",7,"03",3,"C11","Dorchester",8,"Ward 15","1504","2-8 East St",2122,42.3074,-71.0588,"Constituent Call"
101000885835,"2013-07-23 17:17:19","","2013-07-24 11:15:36","ONTIME","Closed","Case Closed Case Resolved Crew found no cover off on arrival 7/24. ","Sidewalk Cover / Manhole","Boston Water & Sewer Commission","Sidewalk Cover / Manhole","Sidewalk Cover / Manhole","BWSC_All Cases","BWSC","","","INTERSECTION of Canterbury St & Poplar St  Roslindale  MA  ",12,"08",5,"E5","Roslindale",10,"Ward 18","1809","INTERSECTION Canterbury St & Poplar St",NA,42.278,-71.1237,"Constituent Call"
101000885842,"2013-07-23 17:25:29","","2013-07-24 08:34:41","ONTIME","Closed","Case Closed Case Resolved OK ON ARRIVAL COVER ON . 7/23 ","Sidewalk Cover / Manhole","Boston Water & Sewer Commission","Sidewalk Cover / Manhole","Sidewalk Cover / Manhole","BWSC_All Cases","BWSC","","","20 N Crescent Cirt  Brighton  MA  02135",11,"04",9,"D14","Allston / Brighton",15,"Ward 22","2210","20 N Crescent Cirt",2135,42.3493,-71.1675,"Constituent Call"
101000885850,"2013-07-23 17:31:27","","2013-07-25 09:28:04","ONTIME","Closed","Case Closed Case Resolved NO COVERS MISSING 7/24 ","Sidewalk Cover / Manhole","Boston Water & Sewer Commission","Sidewalk Cover / Manhole","Sidewalk Cover / Manhole","BWSC_All Cases","BWSC","","","15 Cranmore Rd  Hyde Park  MA  02136",12,"08",5,"E18","Hyde Park",10,"Ward 18","1817","15 Cranmore Rd",2136,42.2401,-71.125,"Constituent Call"
101000887363,"2013-07-25 14:54:57","","2013-07-29 16:30:15","ONTIME","Closed","Case Closed Case Noted GAS COVER  COULD NOT GET BACK ON  COVER IS WEDGED  GAVE TO MAYOR'S OFFICE ","Sidewalk Cover / Manhole","Boston Water & Sewer Commission","Sidewalk Cover / Manhole","Sidewalk Cover / Manhole","BWSC_All Cases","BWSC","",""," ",NA," ",NA," "," ",NA," "," ","",NA,42.3594,-71.0587,"Employee Generated"
101000893386,"2013-08-02 22:11:02","","2014-07-23 15:28:03","ONTIME","Closed","Case Closed Case Resolved ","Sidewalk Cover / Manhole","Boston Water & Sewer Commission","Sidewalk Cover / Manhole","Sidewalk Cover / Manhole","PWDx_Street Light_General Lighting Request","PWDx","","","2 Union Park St  Roxbury  MA  02118",4,"1C",2,"D4","South End",4,"Ward 3","0307","2 Union Park St",2118,42.342,-71.0702,"Constituent Call"
101000898624,"2013-08-10 10:43:00","","2013-08-12 13:46:18","ONTIME","Closed","Case Closed Case Resolved PATCHED HOLE 10.5X7.5'  MADE SAFE.  ALSO 14X16 AIR COCK FOUND TUBE STICKING UP TOO HIGH  BROKE THIS OUT AND ALL SET NOW 8/10 ","Sidewalk Cover / Manhole","Boston Water & Sewer Commission","Sidewalk Cover / Manhole","Sidewalk Cover / Manhole","BWSC_All Cases","BWSC","","","451 D St  Boston  MA  02210",6,"05",2,"C6","South Boston / South Boston Waterfront",5,"Ward 6","0601","451 D St",2210,42.3452,-71.042,"Constituent Call"
101000903914,"2013-08-16 23:28:33","","","ONTIME","Open"," ","Sidewalk Cover / Manhole","Boston Water & Sewer Commission","Sidewalk Cover / Manhole","Sidewalk Cover / Manhole","INFO01_GenericeFormforOtherServiceRequestTypes","INFO","","","30 Sawyer Ave  Dorchester  MA  02125",7,"03",3,"C11","Dorchester",7,"Ward 13","1309","30 Sawyer Ave",2125,42.3128,-71.0601,"Constituent Call"
101000911185,"2013-08-27 11:06:59","","2014-01-15 14:26:55","ONTIME","Closed","Case Closed Case Noted contractor will repair 1/14/2014 ","Sidewalk Cover / Manhole","Boston Water & Sewer Commission","Sidewalk Cover / Manhole","Sidewalk Cover / Manhole","BWSC_All Cases","BWSC","","","296 State St  Boston  MA  02110",3,"1B",1,"A1","Boston",3,"03","0301","296 State St",2110,42.3601,-71.0509,"Constituent Call"
101000911415,"2013-08-27 14:18:42","","2013-08-28 09:53:36","ONTIME","Closed","Case Closed Case Resolved Replaced missing jumbo box cover 8/27/13 ","Sidewalk Cover / Manhole","Boston Water & Sewer Commission","Sidewalk Cover / Manhole","Sidewalk Cover / Manhole","BWSC_All Cases","BWSC","","","54 Bailey St  Dorchester  MA  02124",8,"07",4,"C11","Dorchester",8,"Ward 17","1711","54 Bailey St",2124,42.2844,-71.0676,"Constituent Call"
101000912544,"2013-08-28 13:56:57","","2013-08-28 15:06:01","ONTIME","Closed","Case Closed Case Resolved Crew sealed loose manhole with rope tar. 8/28/13 ","Sidewalk Cover / Manhole","Boston Water & Sewer Commission","Sidewalk Cover / Manhole","Sidewalk Cover / Manhole","BWSC_All Cases","BWSC","","","INTERSECTION of Ashford St & Malvern St  Allston  MA  ",11,"04",9,"D14","Allston / Brighton",15,"Ward 21","2104","INTERSECTION Ashford St & Malvern St",NA,42.3543,-71.1247,"Constituent Call"
101000915493,"2013-09-01 10:00:37","","2014-01-21 15:50:32","ONTIME","Closed","Case Closed Case Resolved No cover off 9/1/13 ","Sidewalk Cover / Manhole","Boston Water & Sewer Commission","Sidewalk Cover / Manhole","Sidewalk Cover / Manhole","BWSC_All Cases","BWSC","","","INTERSECTION of Metropolitan Ave & Poplar St  Roslindale  MA  ",12,"08",5,"E18","Roslindale",10,"Ward 18","1809","INTERSECTION Metropolitan Ave & Poplar St",NA,42.2759,-71.1257,"Constituent Call"
101000916210,"2013-09-02 15:56:44","","2013-09-03 14:41:06","ONTIME","Closed","Case Closed Case Noted CHECK ENTIRE BLOCK AND AROUND PROPERTY OF REHAB NO MANHOLE PROBLEMS FOUND 9/2 ","Sidewalk Cover / Manhole","Boston Water & Sewer Commission","Sidewalk Cover / Manhole","Sidewalk Cover / Manhole","BWSC_All Cases","BWSC","","","125 Nashua St  Boston  MA  02114",3,"1B",8,"A1","Boston",3,"03","0305","125 Nashua St",2114,42.3678,-71.065,"Constituent Call"
101000918096,"2013-09-04 13:21:17","","2013-09-09 15:23:06","ONTIME","Closed","Case Closed Case Resolved 2 141X6 COVERS ARE OK  PATCHED AROUND 1 9/6 ","Sidewalk Cover / Manhole","Boston Water & Sewer Commission","Sidewalk Cover / Manhole","Sidewalk Cover / Manhole","BWSC_All Cases","BWSC","","","225 Centre St  Jamaica Plain  MA  02130",9,"10A",6,"E13","Jamaica Plain",11,"11","1104","225 Centre St",2130,42.3231,-71.0991,"Constituent Call"
101000386086,"2012-02-20 09:52:48","","2013-03-06 12:29:57","ONTIME","Closed","Case Closed Case Resolved Cemented on 6/22/12 ","Sidewalk Cover / Manhole","Boston Water & Sewer Commission","Sidewalk Cover / Manhole","Sidewalk Cover / Manhole","BWSC_All Cases","BWSC","","","5 Orchard St  Jamaica Plain  MA  02130",9,"02",6,"E13","Jamaica Plain",11,"Ward 19","1908","5 Orchard St",2130,42.3093,-71.12,"Constituent Call"
101000922684,"2013-09-10 09:22:45","","2013-09-10 14:58:04","ONTIME","Closed","Case Closed Case Resolved ALL BWSC COVERS OK NSTAR ON SIGHT REPLACE ONE OF THERE MH' 9/10 ","Sidewalk Cover / Manhole","Boston Water & Sewer Commission","Sidewalk Cover / Manhole","Sidewalk Cover / Manhole","BWSC_All Cases","BWSC","","","255 Condor St  East Boston  MA  02128",1,"09",1,"A7","East Boston",1,"Ward 1","0109","255 Condor St",2128,42.3825,-71.031,"Constituent Call"
101000924815,"2013-09-12 07:29:14","","2014-01-21 15:57:19","ONTIME","Closed","Case Closed Case Noted packed stopped leak 9/12/13 ","Sidewalk Cover / Manhole","Boston Water & Sewer Commission","Sidewalk Cover / Manhole","Sidewalk Cover / Manhole","BWSC_All Cases","BWSC","","","INTERSECTION of Cambridge St & Charles St  Boston  MA  ",3,"1B",8,"A1","Beacon Hill",14,"Ward 5","0511","INTERSECTION Cambridge St & Charles St",NA,42.3609,-71.0706,"Constituent Call"
101000928183,"2013-09-16 14:27:00","","2013-09-17 16:18:54","ONTIME","Closed","Case Closed Case Resolved Crew replaced a bradley head cover 9/16/13. ","Sidewalk Cover / Manhole","Boston Water & Sewer Commission","Sidewalk Cover / Manhole","Sidewalk Cover / Manhole","BWSC_All Cases","BWSC","","","INTERSECTION of Blanchard St & Norfolk St  Roxbury  MA  ",7,"10B",7,"B2","Roxbury",13,"Ward 9","0905","INTERSECTION Blanchard St & Norfolk St",NA,42.3285,-71.0904,"Constituent Call"
101000929178,"2013-09-17 18:49:19","","2013-09-18 09:17:31","ONTIME","Closed","Case Closed Case Resolved Crew investigated  found no missing covers. 9/17/13 ","Sidewalk Cover / Manhole","Boston Water & Sewer Commission","Sidewalk Cover / Manhole","Sidewalk Cover / Manhole","BWSC_All Cases","BWSC","","","300 Longwood Ave  Boston  MA  02115",9,"10A",8,"B2","Boston",14,"04","0410","300 Longwood Ave",2115,42.3375,-71.105,"Constituent Call"
101000932343,"2013-09-23 10:20:15","","2013-09-27 11:23:11","ONTIME","Closed","Case Closed Case Resolved ON ARRIVAL NO MH COVER ON DRAIN IN FIELD. REPLACED A2 COVER  ALL SET 9/23 ","Sidewalk Cover / Manhole","Boston Water & Sewer Commission","Sidewalk Cover / Manhole","Sidewalk Cover / Manhole","BWSC_All Cases","BWSC","","","100 Meadow Rd  Hyde Park  MA  02136",12,"08",5,"E18","Hyde Park",10,"18","1820","100 Meadow Rd",2136,42.3594,-71.0587,"Constituent Call"
101000934437,"2013-09-25 15:29:03","","2013-09-27 10:34:43","ONTIME","Closed","Case Closed Case Noted NO MH FOUND ON SIDEWALK  JUST A STEAM COVER ON SIDEWALK IN GOOD CONDITION  ONE MISSING BRICK. 9/26 ","Sidewalk Cover / Manhole","Boston Water & Sewer Commission","Sidewalk Cover / Manhole","Sidewalk Cover / Manhole","BWSC_All Cases","BWSC","","","245 W Newton St  Boston  MA  02116",4,"1C",7,"D4","Boston",14,"04","0405","245 W Newton St",2116,42.3447,-71.0804,"Constituent Call"
101000935156,"2013-09-26 15:04:07","","2013-10-02 13:07:51","ONTIME","Closed","Case Closed Case Resolved CLEANED AND DISINFECTED 9/27 ","Sidewalk Cover / Manhole","Boston Water & Sewer Commission","Sidewalk Cover / Manhole","Sidewalk Cover / Manhole","BWSC_All Cases","BWSC","","","1614 Blue Hill Ave  Mattapan  MA  02126",8,"07",4,"B3","Greater Mattapan",9,"Ward 18","1804","1614 Blue Hill Ave",2126,42.2689,-71.0934,"Constituent Call"
101000935177,"2013-09-26 15:36:34","","","ONTIME","Open"," ","Sidewalk Cover / Manhole","Boston Water & Sewer Commission","Sidewalk Cover / Manhole","Sidewalk Cover / Manhole","INFO01_GenericeFormforOtherServiceRequestTypes","INFO","","","INTERSECTION of Gloucester St & Newbury St  Boston  MA  ",4,"1C",8,"D4","Back Bay",14,"Ward 5","0509","INTERSECTION Gloucester St & Newbury St",NA,42.3492,-71.0841,"Constituent Call"
101000935213,"2013-09-26 16:31:01","","2014-11-24 16:32:43","ONTIME","Closed","Case Closed Case Referred to External Agency Reallocated to BWSC - Manhole loose near Draper Pool. ","Draper Playground: Manhole loose near playground","Boston Water & Sewer Commission","Sidewalk Cover / Manhole","Sidewalk Cover / Manhole","BWSC_All Cases","BWSC","","","5279 Washington St  West Roxbury  MA  02132",12,"06",6,"E5","West Roxbury",12,"Ward 20","2015","5279 Washington St",2132,42.3594,-71.0587,"Constituent Call"
101000935921,"2013-09-27 15:04:03","","2014-01-28 08:24:25","ONTIME","Closed","Case Closed Case Resolved ALL COVERS OK IN AREA 1/27 ","Sidewalk Cover / Manhole","Boston Water & Sewer Commission","Sidewalk Cover / Manhole","Sidewalk Cover / Manhole","INFO01_GenericeFormforOtherServiceRequestTypes","INFO","","","84 Prince St  Boston  MA  02113",3,"1B",1,"A1","Downtown / Financial District",3,"Ward 3","0304","84 Prince St",2113,42.3653,-71.0559,"Constituent Call"
101000937648,"2013-09-30 20:10:13","","","ONTIME","Open"," ","Sidewalk Cover / Manhole","Boston Water & Sewer Commission","Sidewalk Cover / Manhole","Sidewalk Cover / Manhole","INFO01_GenericeFormforOtherServiceRequestTypes","INFO","","","84 Prince St  Boston  MA  02113",3,"1B",1,"A1","Downtown / Financial District",3,"Ward 3","0304","84 Prince St",2113,42.3653,-71.0559,"Constituent Call"
101000939252,"2013-10-02 18:13:06","","2013-10-03 15:50:40","ONTIME","Closed","Case Closed Case Resolved Crew here 10/2/13  found no missing covers. ","Sidewalk Cover / Manhole","Boston Water & Sewer Commission","Sidewalk Cover / Manhole","Sidewalk Cover / Manhole","BWSC_All Cases","BWSC","","","INTERSECTION of E Broadway & G St  South Boston  MA  ",6,"05",2,"C6","South Boston / South Boston Waterfront",5,"Ward 6","0604","INTERSECTION E Broadway & G St",NA,42.3355,-71.0443,"Constituent Call"
101000940065,"2013-10-03 18:18:04","","2013-10-09 12:15:02","ONTIME","Closed","Case Closed Case Resolved FOUND BROKEN BUFFALO BOX COVER BROKEN  REPLACED 10/7 ","Sidewalk Cover / Manhole","Boston Water & Sewer Commission","Sidewalk Cover / Manhole","Sidewalk Cover / Manhole","BWSC_All Cases","BWSC","","","34 High St  Dorchester  MA  02122",7,"03",3,"C11","Dorchester",8,"Ward 15","1504","34 High St",2122,42.3089,-71.0612,"Constituent Call"
101000940697,"2013-10-04 15:28:24","","2013-10-07 08:29:47","ONTIME","Closed","Case Closed Case Noted CALLED MAYORS OFFICE SPOKE TO DELORES ASKED HER TO CONTACT PWD TO VERIFY OWNERSHIP OF LOOSE  COVER ( COAL CHUTE ) ( SLIDING OFF )  ON SIDEWALK 10/4 ","Sidewalk Cover / Manhole","Boston Water & Sewer Commission","Sidewalk Cover / Manhole","Sidewalk Cover / Manhole","BWSC_All Cases","BWSC","","","33 Gloucester St  Boston  MA  02116",4,"1C",8,"D4","Back Bay",14,"Ward 5","0508","33 Gloucester St",2116,42.3494,-71.084,"Constituent Call"
101000940720,"2013-10-04 16:22:11","","2013-10-07 08:30:24","ONTIME","Closed","Case Closed Case Noted CALLED MAYORS OFFICE SPOKE TO DELORES ASKED HER TO CONTACT PWD TO VERIFY OWNERSHIP OF LOOSE  COVER ( COAL CHUTE ) ( SLIDING OFF )  ON SIDEWALK 10/4     ","Sidewalk Cover / Manhole","Boston Water & Sewer Commission","Sidewalk Cover / Manhole","Sidewalk Cover / Manhole","BWSC_All Cases","BWSC","","","INTERSECTION of Gloucester St & Newbury St  Boston  MA  ",4,"1C",8,"D4","Back Bay",14,"Ward 5","0509","INTERSECTION Gloucester St & Newbury St",NA,42.3492,-71.0841,"Constituent Call"
101000940722,"2013-10-04 16:23:50","","","ONTIME","Open"," ","Sidewalk Cover / Manhole","Boston Water & Sewer Commission","Sidewalk Cover / Manhole","Sidewalk Cover / Manhole","INFO01_GenericeFormforOtherServiceRequestTypes","INFO","","","33 Gloucester St  Boston  MA  02116",4,"1C",8,"D4","Back Bay",14,"Ward 5","0508","33 Gloucester St",2116,42.3494,-71.084,"Constituent Call"
101000945893,"2013-10-13 12:05:11","","2013-10-15 10:13:55","ONTIME","Closed","Case Closed Case Resolved   GATE CLOSED HAS A PAKING LEAK 10/13 contractor working here   ","Sidewalk Cover / Manhole","Boston Water & Sewer Commission","Sidewalk Cover / Manhole","Sidewalk Cover / Manhole","BWSC_All Cases","BWSC","","","INTERSECTION of Edinboro St & Essex St  Boston  MA  ",4,"1C",2,"A1","Downtown / Financial District",4,"Ward 3","0308","INTERSECTION Edinboro St & Essex St",NA,42.3525,-71.0598,"Constituent Call"
101000946986,"2013-10-15 17:13:11","","2013-10-22 16:26:14","ONTIME","Closed","Case Closed Case Resolved FOUND LEAK AT FITTING ON 2"" CORP CUT OUT 4"" PIECE OF 2"" COPPER REPLACED WITH NEW COPPER AND 2"" COPPER TO COPPPER FITTING .WATER ON NO LEAKS BACKFILLED TAMPED AND PATCHED  ","Sidewalk Cover / Manhole","Boston Water & Sewer Commission","Sidewalk Cover / Manhole","Sidewalk Cover / Manhole","BWSC_All Cases","BWSC","","","INTERSECTION of Harvard Ave & Webster St  Hyde Park  MA  ",12,"08",5,"E18","Hyde Park",10,"Ward 18","1813","INTERSECTION Harvard Ave & Webster St",NA,42.2587,-71.1224,"Constituent Call"
101000950050,"2013-10-21 07:44:32","","2013-10-25 16:18:47","ONTIME","Closed","Case Closed Case Resolved Reset gate cover 10/25/13 ","Sidewalk Cover / Manhole","Boston Water & Sewer Commission","Sidewalk Cover / Manhole","Sidewalk Cover / Manhole","BWSC_All Cases","BWSC","","","INTERSECTION of Bennington St & Walley St  East Boston  MA  ",1,"09",1,"A7","East Boston",1,"Ward 1","0112","INTERSECTION Bennington St & Walley St",NA,42.3885,-71.0004,"Constituent Call"
101000954626,"2013-10-26 22:39:21","","2013-10-28 13:19:18","ONTIME","Closed","Case Closed Duplicate of Existing Case ","Sidewalk Cover / Manhole","Boston Water & Sewer Commission","Sidewalk Cover / Manhole","Sidewalk Cover / Manhole","INFO_Reallocation From Dept","INFO","","","569 Tremont St  Roxbury  MA  02118",4,"1C",2,"D4","South End",6,"Ward 4","0401","569 Tremont St",2118,42.3438,-71.0724,"Constituent Call"
101000957126,"2013-10-30 13:53:31","","2013-11-01 10:42:21","ONTIME","Closed","Case Closed Case Resolved INVESTIGATED & REPLACED BRADLEY HEAD COVER 10/30 ","Sidewalk Cover / Manhole","Boston Water & Sewer Commission","Sidewalk Cover / Manhole","Sidewalk Cover / Manhole","BWSC_All Cases","BWSC","","","INTERSECTION of Columbia Rd & Ticknor St  South Boston  MA  ",6,"05",2,"C6","South Boston / South Boston Waterfront",5,"Ward 7","0701","INTERSECTION Columbia Rd & Ticknor St",NA,42.3295,-71.036,"Constituent Call"
101000962155,"2013-11-07 15:52:49","","2014-01-21 12:09:43","ONTIME","Closed","Case Closed Case Resolved replaced cover 11/7/13 ","Sidewalk Cover / Manhole","Boston Water & Sewer Commission","Sidewalk Cover / Manhole","Sidewalk Cover / Manhole","BWSC_All Cases","BWSC","","","INTERSECTION of Ashley St & Chestnut Ave  Jamaica Plain  MA  ",9,"10A",6,"E13","Jamaica Plain",11,"Ward 10","1007","INTERSECTION Ashley St & Chestnut Ave",NA,42.3204,-71.1034,"Constituent Call"
101000963123,"2013-11-09 15:51:47","","","ONTIME","Open"," ","Sidewalk Cover / Manhole","Boston Water & Sewer Commission","Sidewalk Cover / Manhole","Sidewalk Cover / Manhole","INFO01_GenericeFormforOtherServiceRequestTypes","INFO","","","1 Melrose St  Boston  MA  02116",4,"1C",2,"A1","Back Bay",6,"Ward 5","0501","1 Melrose St",2116,42.3494,-71.0671,"Constituent Call"
101000963894,"2013-11-12 08:58:25","","2013-11-13 15:14:12","ONTIME","Closed","Case Closed Case Resolved REPLACED 2 MISSING EGRATE COVERS 11/12 ","Sidewalk Cover / Manhole","Boston Water & Sewer Commission","Sidewalk Cover / Manhole","Sidewalk Cover / Manhole","BWSC_All Cases","BWSC","","","30 Caldwell St  Charlestown  MA  02129",3,"1A",1,"A15","Charlestown",2,"02"," ","30 Caldwell St",2129,42.3847,-71.0777,"Constituent Call"
101000966258,"2013-11-15 13:45:29","","2013-11-18 14:39:55","ONTIME","Closed","Case Closed Case Resolved REPLACED E-GRATE COVER & CLEANED  RETURED BARRIERS & SAFETY CONES TO STORE ROOM. 11/15 ","Sidewalk Cover / Manhole","Boston Water & Sewer Commission","Sidewalk Cover / Manhole","Sidewalk Cover / Manhole","BWSC_All Cases","BWSC","","","67 Dennis St  Roxbury  MA  02119",7,"03",7,"B2","Roxbury",13,"Ward 8","0807","67 Dennis St",2119,42.3216,-71.0763,"Constituent Call"
101000966516,"2013-11-16 07:18:16","","2014-01-21 12:05:47","ONTIME","Closed","Case Closed Case Resolved replaced e-grate cover 11/16/13 ","Sidewalk Cover / Manhole","Boston Water & Sewer Commission","Sidewalk Cover / Manhole","Sidewalk Cover / Manhole","BWSC_All Cases","BWSC","","","INTERSECTION of Cotton St & Fairview St  Roslindale  MA  ",9,"06",5,"E5","Roslindale",10,"Ward 20","2004","INTERSECTION Cotton St & Fairview St",NA,42.2905,-71.1286,"Constituent Call"
101000966518,"2013-11-16 07:26:20","","2013-11-18 14:38:23","ONTIME","Closed","Case Closed Case Resolved REPLACE E-GRATE COVER 11/16 ","Sidewalk Cover / Manhole","Boston Water & Sewer Commission","Sidewalk Cover / Manhole","Sidewalk Cover / Manhole","BWSC_All Cases","BWSC","","","INTERSECTION of Bourne St & Eastland Rd  Roslindale  MA  ",12,"02",6,"E13","Jamaica Plain",10,"Ward 19","1907","INTERSECTION Bourne St & Eastland Rd",NA,42.2889,-71.1131,"Constituent Call"
101000966882,"2013-11-17 07:25:06","","2014-01-15 15:55:50","ONTIME","Closed","Case Closed Case Resolved fix cover 12/25/13 ","Sidewalk Cover / Manhole","Boston Water & Sewer Commission","Sidewalk Cover / Manhole","Sidewalk Cover / Manhole","BWSC_All Cases","BWSC","","","1148 Bennington St  East Boston  MA  02128",1,"09",1,"A7","East Boston",1,"Ward 1","0113","1148 Bennington St",2128,42.3888,-71.0008,"Constituent Call"
101000967118,"2013-11-18 07:38:05","","2013-11-19 11:10:40","ONTIME","Closed","Case Closed Case Resolved CREW SECURED 14X16 BACK IN FRAME  ALL SET  USED ROPE TAR TO SECURE 11/18 ","Sidewalk Cover / Manhole","Boston Water & Sewer Commission","Sidewalk Cover / Manhole","Sidewalk Cover / Manhole","BWSC_All Cases","BWSC","","","INTERSECTION of Bennington St & Walley St  East Boston  MA  ",1,"09",1,"A7","East Boston",1,"Ward 1","0112","INTERSECTION Bennington St & Walley St",NA,42.3885,-71.0004,"Constituent Call"
101000968679,"2013-11-20 06:24:49","","","ONTIME","Open","Case Closed Case Resolved MWRA 48' MH COVER WAS 1/2 OFF  PLACED BACK IN PROPER POSITION. 11/20 ","Sidewalk Cover / Manhole","Boston Water & Sewer Commission","Sidewalk Cover / Manhole","Sidewalk Cover / Manhole","INFO01_GenericeFormforOtherServiceRequestTypes","INFO","","","INTERSECTION of Chelsea St & Chestnut St  Charlestown  MA  ",3,"1A",1,"A15","Charlestown",2,"Ward 2","0201","INTERSECTION Chelsea St & Chestnut St",NA,42.3735,-71.0586,"Constituent Call"
101000974795,"2013-12-02 13:03:57","","","ONTIME","Open"," ","Sidewalk Cover / Manhole","Boston Water & Sewer Commission","Sidewalk Cover / Manhole","Sidewalk Cover / Manhole","INFO01_GenericeFormforOtherServiceRequestTypes","INFO","","","INTERSECTION of Bowdoin St & Derne St  Boston  MA  ",3,"1B",8,"A1","Downtown / Financial District",14,"Ward 5","0503","INTERSECTION Bowdoin St & Derne St",NA,42.3595,-71.0629,"Constituent Call"
101000977461,"2013-12-06 07:22:38","","2013-12-06 15:08:38","ONTIME","Closed","Case Closed Case Noted NO MISSING COVER FOUND  ONLY A GAS COVER SUNKEN DOWN A BIT 12/6 ","Sidewalk Cover / Manhole","Boston Water & Sewer Commission","Sidewalk Cover / Manhole","Sidewalk Cover / Manhole","BWSC_All Cases","BWSC","","","INTERSECTION of Chamber St & Warren St  Charlestown  MA  ",3,"1A",1,"A15","Charlestown",2,"Ward 2","0201","INTERSECTION Chamber St & Warren St",NA,42.3722,-71.0605,"Constituent Call"
101000978075,"2013-12-07 10:29:18","","2014-01-20 10:55:54","ONTIME","Closed","Case Closed Case Resolved sealed 14/16 cover 12/7/13 ","Sidewalk Cover / Manhole","Boston Water & Sewer Commission","Sidewalk Cover / Manhole","Sidewalk Cover / Manhole","BWSC_All Cases","BWSC","","","INTERSECTION of Cheshire St & Green St  Jamaica Plain  MA  ",9,"02",6,"E13","Jamaica Plain",11,"Ward 19","1906","INTERSECTION Cheshire St & Green St",NA,42.3117,-71.1098,"Constituent Call"
101000979022,"2013-12-10 07:48:03","","2013-12-10 11:59:12","ONTIME","Closed","Case Closed Case Resolved STOLEN E GRATE NOTIFIED BPD OPERATOR 369 8:50AM.  POLICE OFFICER SHOWED UP AND WROTE UP REPORT.  CREW REPLACED STOLEN E GRATE. 12/10 ","Sidewalk Cover / Manhole","Boston Water & Sewer Commission","Sidewalk Cover / Manhole","Sidewalk Cover / Manhole","BWSC_All Cases","BWSC","","","INTERSECTION of Guild St & Millmont St  Roxbury  MA  ",7,"10B",7,"B2","Roxbury",13,"Ward 9","0905","INTERSECTION Guild St & Millmont St",NA,42.3273,-71.0901,"Constituent Call"
101000979031,"2013-12-10 08:08:51","","2013-12-10 11:58:37","ONTIME","Closed","Case Closed Case Resolved STOLEN E GRATE NOTIFIED BPD OPERATOR 369 8:50AM.  POLICE OFFICER SHOWED UP AND WROTE UP REPORT.  CREW REPLACED STOLEN E GRATE. 12/10 ","Sidewalk Cover / Manhole","Boston Water & Sewer Commission","Sidewalk Cover / Manhole","Sidewalk Cover / Manhole","BWSC_All Cases","BWSC","","","INTERSECTION of Guild St & Millmont St  Roxbury  MA  ",7,"10B",7,"B2","Roxbury",13,"Ward 9","0905","INTERSECTION Guild St & Millmont St",NA,42.3273,-71.0901,"Constituent Call"
